{
	"texaszips": {
		"75001": {
			"latitude": "32.96",
			"longitude": "-96.83849",
			"city": "Addison",
			"stateid": "TX",
			"statename": "Texas",
			"zcta": "TRUE",
			"parent_zcta": "",
			"population": "14992",
			"density": "1510.1",
			"countyfips": "48113",
			"countyname": "Dallas",
			"countyweights": "{\"48113\": \"100\"}",
			"countynamesall": "Dallas",
			"countyfipsall": "48113",
			"imprecise": "FALSE",
			"military": "FALSE",
			"timezone": "America/Chicago"
		},
		"75002": {
			"latitude": "33.08965",
			"longitude": "-96.60752",
			"city": "Allen",
			"stateid": "TX",
			"statename": "Texas",
			"zcta": "TRUE",
			"parent_zcta": "",
			"population": "71253",
			"density": "739.6",
			"countyfips": "48085",
			"countyname": "Collin",
			"countyweights": "{\"48085\": \"100\"}",
			"countynamesall": "Collin",
			"countyfipsall": "48085",
			"imprecise": "FALSE",
			"military": "FALSE",
			"timezone": "America/Chicago"
		},
		"75006": {
			"latitude": "32.96188",
			"longitude": "-96.89701",
			"city": "Carrollton",
			"stateid": "TX",
			"statename": "Texas",
			"zcta": "TRUE",
			"parent_zcta": "",
			"population": "51642",
			"density": "1186.2",
			"countyfips": "48113",
			"countyname": "Dallas",
			"countyweights": "{\"48113\": \"100\"}",
			"countynamesall": "Dallas",
			"countyfipsall": "48113",
			"imprecise": "FALSE",
			"military": "FALSE",
			"timezone": "America/Chicago"
		},
		"75007": {
			"latitude": "33.00462",
			"longitude": "-96.89715",
			"city": "Carrollton",
			"stateid": "TX",
			"statename": "Texas",
			"zcta": "TRUE",
			"parent_zcta": "",
			"population": "55500",
			"density": "1823.7",
			"countyfips": "48121",
			"countyname": "Denton",
			"countyweights": "{\"48121\": \"94.21\", \"48113\": \"5.79\"}",
			"countynamesall": "Denton|Dallas",
			"countyfipsall": "48121|48113",
			"imprecise": "FALSE",
			"military": "FALSE",
			"timezone": "America/Chicago"
		},
		"75009": {
			"latitude": "33.34028",
			"longitude": "-96.75033",
			"city": "Celina",
			"stateid": "TX",
			"statename": "Texas",
			"zcta": "TRUE",
			"parent_zcta": "",
			"population": "14089",
			"density": "56.9",
			"countyfips": "48085",
			"countyname": "Collin",
			"countyweights": "{\"48085\": \"94.8\", \"48121\": \"5.2\"}",
			"countynamesall": "Collin|Denton",
			"countyfipsall": "48085|48121",
			"imprecise": "FALSE",
			"military": "FALSE",
			"timezone": "America/Chicago"
		},
		"75010": {
			"latitude": "33.03425",
			"longitude": "-96.89673",
			"city": "Carrollton",
			"stateid": "TX",
			"statename": "Texas",
			"zcta": "TRUE",
			"parent_zcta": "",
			"population": "30406",
			"density": "1452.9",
			"countyfips": "48121",
			"countyname": "Denton",
			"countyweights": "{\"48121\": \"100\"}",
			"countynamesall": "Denton",
			"countyfipsall": "48121",
			"imprecise": "FALSE",
			"military": "FALSE",
			"timezone": "America/Chicago"
		},
		"75013": {
			"latitude": "33.11467",
			"longitude": "-96.69411",
			"city": "Allen",
			"stateid": "TX",
			"statename": "Texas",
			"zcta": "TRUE",
			"parent_zcta": "",
			"population": "42629",
			"density": "1094.6",
			"countyfips": "48085",
			"countyname": "Collin",
			"countyweights": "{\"48085\": \"100\"}",
			"countynamesall": "Collin",
			"countyfipsall": "48085",
			"imprecise": "FALSE",
			"military": "FALSE",
			"timezone": "America/Chicago"
		},
		"75019": {
			"latitude": "32.96329",
			"longitude": "-96.98553",
			"city": "Coppell",
			"stateid": "TX",
			"statename": "Texas",
			"zcta": "TRUE",
			"parent_zcta": "",
			"population": "42888",
			"density": "1004.9",
			"countyfips": "48113",
			"countyname": "Dallas",
			"countyweights": "{\"48113\": \"98.05\", \"48121\": \"1.95\"}",
			"countynamesall": "Dallas|Denton",
			"countyfipsall": "48113|48121",
			"imprecise": "FALSE",
			"military": "FALSE",
			"timezone": "America/Chicago"
		},
		"75020": {
			"latitude": "33.77165",
			"longitude": "-96.60414",
			"city": "Denison",
			"stateid": "TX",
			"statename": "Texas",
			"zcta": "TRUE",
			"parent_zcta": "",
			"population": "23232",
			"density": "143.4",
			"countyfips": "48181",
			"countyname": "Grayson",
			"countyweights": "{\"48181\": \"100\"}",
			"countynamesall": "Grayson",
			"countyfipsall": "48181",
			"imprecise": "FALSE",
			"military": "FALSE",
			"timezone": "America/Chicago"
		},
		"75021": {
			"latitude": "33.72616",
			"longitude": "-96.47325",
			"city": "Denison",
			"stateid": "TX",
			"statename": "Texas",
			"zcta": "TRUE",
			"parent_zcta": "",
			"population": "8847",
			"density": "56.8",
			"countyfips": "48181",
			"countyname": "Grayson",
			"countyweights": "{\"48181\": \"100\"}",
			"countynamesall": "Grayson",
			"countyfipsall": "48181",
			"imprecise": "FALSE",
			"military": "FALSE",
			"timezone": "America/Chicago"
		},
		"75022": {
			"latitude": "33.02772",
			"longitude": "-97.12024",
			"city": "Flower Mound",
			"stateid": "TX",
			"statename": "Texas",
			"zcta": "TRUE",
			"parent_zcta": "",
			"population": "27201",
			"density": "546.8",
			"countyfips": "48121",
			"countyname": "Denton",
			"countyweights": "{\"48121\": \"99.09\", \"48439\": \"0.91\"}",
			"countynamesall": "Denton|Tarrant",
			"countyfipsall": "48121|48439",
			"imprecise": "FALSE",
			"military": "FALSE",
			"timezone": "America/Chicago"
		},
		"75023": {
			"latitude": "33.05706",
			"longitude": "-96.73242",
			"city": "Plano",
			"stateid": "TX",
			"statename": "Texas",
			"zcta": "TRUE",
			"parent_zcta": "",
			"population": "50431",
			"density": "2066.8",
			"countyfips": "48085",
			"countyname": "Collin",
			"countyweights": "{\"48085\": \"100\"}",
			"countynamesall": "Collin",
			"countyfipsall": "48085",
			"imprecise": "FALSE",
			"military": "FALSE",
			"timezone": "America/Chicago"
		},
		"75024": {
			"latitude": "33.07735",
			"longitude": "-96.80704",
			"city": "Plano",
			"stateid": "TX",
			"statename": "Texas",
			"zcta": "TRUE",
			"parent_zcta": "",
			"population": "43551",
			"density": "1326.6",
			"countyfips": "48085",
			"countyname": "Collin",
			"countyweights": "{\"48085\": \"94.2\", \"48121\": \"5.8\"}",
			"countynamesall": "Collin|Denton",
			"countyfipsall": "48085|48121",
			"imprecise": "FALSE",
			"military": "FALSE",
			"timezone": "America/Chicago"
		},
		"75025": {
			"latitude": "33.09095",
			"longitude": "-96.74128",
			"city": "Plano",
			"stateid": "TX",
			"statename": "Texas",
			"zcta": "TRUE",
			"parent_zcta": "",
			"population": "53764",
			"density": "2219.7",
			"countyfips": "48085",
			"countyname": "Collin",
			"countyweights": "{\"48085\": \"100\"}",
			"countynamesall": "Collin",
			"countyfipsall": "48085",
			"imprecise": "FALSE",
			"military": "FALSE",
			"timezone": "America/Chicago"
		},
		"75028": {
			"latitude": "33.0328",
			"longitude": "-97.06086",
			"city": "Flower Mound",
			"stateid": "TX",
			"statename": "Texas",
			"zcta": "TRUE",
			"parent_zcta": "",
			"population": "47804",
			"density": "1217.1",
			"countyfips": "48121",
			"countyname": "Denton",
			"countyweights": "{\"48121\": \"99.99\", \"48439\": \"0.01\"}",
			"countynamesall": "Denton|Tarrant",
			"countyfipsall": "48121|48439",
			"imprecise": "FALSE",
			"military": "FALSE",
			"timezone": "America/Chicago"
		},
		"75032": {
			"latitude": "32.85505",
			"longitude": "-96.42772",
			"city": "Rockwall",
			"stateid": "TX",
			"statename": "Texas",
			"zcta": "TRUE",
			"parent_zcta": "",
			"population": "33080",
			"density": "248.9",
			"countyfips": "48397",
			"countyname": "Rockwall",
			"countyweights": "{\"48397\": \"100\"}",
			"countynamesall": "Rockwall",
			"countyfipsall": "48397",
			"imprecise": "FALSE",
			"military": "FALSE",
			"timezone": "America/Chicago"
		},
		"75034": {
			"latitude": "33.15195",
			"longitude": "-96.86036",
			"city": "Frisco",
			"stateid": "TX",
			"statename": "Texas",
			"zcta": "TRUE",
			"parent_zcta": "",
			"population": "108525",
			"density": "837.4",
			"countyfips": "48121",
			"countyname": "Denton",
			"countyweights": "{\"48121\": \"65.96\", \"48085\": \"34.04\"}",
			"countynamesall": "Denton|Collin",
			"countyfipsall": "48121|48085",
			"imprecise": "FALSE",
			"military": "FALSE",
			"timezone": "America/Chicago"
		},
		"75035": {
			"latitude": "33.15534",
			"longitude": "-96.77271",
			"city": "Frisco",
			"stateid": "TX",
			"statename": "Texas",
			"zcta": "TRUE",
			"parent_zcta": "",
			"population": "75485",
			"density": "1234.1",
			"countyfips": "48085",
			"countyname": "Collin",
			"countyweights": "{\"48085\": \"100\"}",
			"countynamesall": "Collin",
			"countyfipsall": "48085",
			"imprecise": "FALSE",
			"military": "FALSE",
			"timezone": "America/Chicago"
		},
		"75038": {
			"latitude": "32.87457",
			"longitude": "-96.99759",
			"city": "Irving",
			"stateid": "TX",
			"statename": "Texas",
			"zcta": "TRUE",
			"parent_zcta": "",
			"population": "29990",
			"density": "865.8",
			"countyfips": "48113",
			"countyname": "Dallas",
			"countyweights": "{\"48113\": \"100\"}",
			"countynamesall": "Dallas",
			"countyfipsall": "48113",
			"imprecise": "FALSE",
			"military": "FALSE",
			"timezone": "America/Chicago"
		},
		"75039": {
			"latitude": "32.88753",
			"longitude": "-96.94224",
			"city": "Irving",
			"stateid": "TX",
			"statename": "Texas",
			"zcta": "TRUE",
			"parent_zcta": "",
			"population": "20108",
			"density": "1477.5",
			"countyfips": "48113",
			"countyname": "Dallas",
			"countyweights": "{\"48113\": \"100\"}",
			"countynamesall": "Dallas",
			"countyfipsall": "48113",
			"imprecise": "FALSE",
			"military": "FALSE",
			"timezone": "America/Chicago"
		},
		"75040": {
			"latitude": "32.92766",
			"longitude": "-96.62008",
			"city": "Garland",
			"stateid": "TX",
			"statename": "Texas",
			"zcta": "TRUE",
			"parent_zcta": "",
			"population": "62417",
			"density": "1539.7",
			"countyfips": "48113",
			"countyname": "Dallas",
			"countyweights": "{\"48113\": \"100\"}",
			"countynamesall": "Dallas",
			"countyfipsall": "48113",
			"imprecise": "FALSE",
			"military": "FALSE",
			"timezone": "America/Chicago"
		},
		"75041": {
			"latitude": "32.88091",
			"longitude": "-96.65147",
			"city": "Garland",
			"stateid": "TX",
			"statename": "Texas",
			"zcta": "TRUE",
			"parent_zcta": "",
			"population": "30880",
			"density": "1490.0",
			"countyfips": "48113",
			"countyname": "Dallas",
			"countyweights": "{\"48113\": \"100\"}",
			"countynamesall": "Dallas",
			"countyfipsall": "48113",
			"imprecise": "FALSE",
			"military": "FALSE",
			"timezone": "America/Chicago"
		},
		"75042": {
			"latitude": "32.9139",
			"longitude": "-96.67493",
			"city": "Garland",
			"stateid": "TX",
			"statename": "Texas",
			"zcta": "TRUE",
			"parent_zcta": "",
			"population": "39183",
			"density": "2021.9",
			"countyfips": "48113",
			"countyname": "Dallas",
			"countyweights": "{\"48113\": \"100\"}",
			"countynamesall": "Dallas",
			"countyfipsall": "48113",
			"imprecise": "FALSE",
			"military": "FALSE",
			"timezone": "America/Chicago"
		},
		"75043": {
			"latitude": "32.85707",
			"longitude": "-96.57941",
			"city": "Garland",
			"stateid": "TX",
			"statename": "Texas",
			"zcta": "TRUE",
			"parent_zcta": "",
			"population": "62601",
			"density": "1660.5",
			"countyfips": "48113",
			"countyname": "Dallas",
			"countyweights": "{\"48113\": \"100\"}",
			"countynamesall": "Dallas",
			"countyfipsall": "48113",
			"imprecise": "FALSE",
			"military": "FALSE",
			"timezone": "America/Chicago"
		},
		"75044": {
			"latitude": "32.96264",
			"longitude": "-96.65323",
			"city": "Garland",
			"stateid": "TX",
			"statename": "Texas",
			"zcta": "TRUE",
			"parent_zcta": "",
			"population": "43292",
			"density": "1556.5",
			"countyfips": "48113",
			"countyname": "Dallas",
			"countyweights": "{\"48113\": \"99.36\", \"48085\": \"0.64\"}",
			"countynamesall": "Dallas|Collin",
			"countyfipsall": "48113|48085",
			"imprecise": "FALSE",
			"military": "FALSE",
			"timezone": "America/Chicago"
		},
		"75048": {
			"latitude": "32.972",
			"longitude": "-96.58085",
			"city": "Sachse",
			"stateid": "TX",
			"statename": "Texas",
			"zcta": "TRUE",
			"parent_zcta": "",
			"population": "25598",
			"density": "942.2",
			"countyfips": "48113",
			"countyname": "Dallas",
			"countyweights": "{\"48113\": \"68.91\", \"48085\": \"31.09\"}",
			"countynamesall": "Dallas|Collin",
			"countyfipsall": "48113|48085",
			"imprecise": "FALSE",
			"military": "FALSE",
			"timezone": "America/Chicago"
		},
		"75050": {
			"latitude": "32.77409",
			"longitude": "-97.00532",
			"city": "Grand Prairie",
			"stateid": "TX",
			"statename": "Texas",
			"zcta": "TRUE",
			"parent_zcta": "",
			"population": "43174",
			"density": "673.5",
			"countyfips": "48113",
			"countyname": "Dallas",
			"countyweights": "{\"48113\": \"76.1\", \"48439\": \"23.9\"}",
			"countynamesall": "Dallas|Tarrant",
			"countyfipsall": "48113|48439",
			"imprecise": "FALSE",
			"military": "FALSE",
			"timezone": "America/Chicago"
		},
		"75051": {
			"latitude": "32.72758",
			"longitude": "-96.99437",
			"city": "Grand Prairie",
			"stateid": "TX",
			"statename": "Texas",
			"zcta": "TRUE",
			"parent_zcta": "",
			"population": "40923",
			"density": "1301.0",
			"countyfips": "48113",
			"countyname": "Dallas",
			"countyweights": "{\"48113\": \"90.73\", \"48439\": \"9.27\"}",
			"countynamesall": "Dallas|Tarrant",
			"countyfipsall": "48113|48439",
			"imprecise": "FALSE",
			"military": "FALSE",
			"timezone": "America/Chicago"
		},
		"75052": {
			"latitude": "32.6659",
			"longitude": "-97.02649",
			"city": "Grand Prairie",
			"stateid": "TX",
			"statename": "Texas",
			"zcta": "TRUE",
			"parent_zcta": "",
			"population": "95495",
			"density": "1409.5",
			"countyfips": "48113",
			"countyname": "Dallas",
			"countyweights": "{\"48113\": \"62.84\", \"48439\": \"37.16\"}",
			"countynamesall": "Dallas|Tarrant",
			"countyfipsall": "48113|48439",
			"imprecise": "FALSE",
			"military": "FALSE",
			"timezone": "America/Chicago"
		},
		"75054": {
			"latitude": "32.59059",
			"longitude": "-97.04051",
			"city": "Grand Prairie",
			"stateid": "TX",
			"statename": "Texas",
			"zcta": "TRUE",
			"parent_zcta": "",
			"population": "11927",
			"density": "849.6",
			"countyfips": "48439",
			"countyname": "Tarrant",
			"countyweights": "{\"48439\": \"97.63\", \"48113\": \"2.37\"}",
			"countynamesall": "Tarrant|Dallas",
			"countyfipsall": "48439|48113",
			"imprecise": "FALSE",
			"military": "FALSE",
			"timezone": "America/Chicago"
		},
		"75056": {
			"latitude": "33.07393",
			"longitude": "-96.91484",
			"city": "The Colony",
			"stateid": "TX",
			"statename": "Texas",
			"zcta": "TRUE",
			"parent_zcta": "",
			"population": "60554",
			"density": "927.2",
			"countyfips": "48121",
			"countyname": "Denton",
			"countyweights": "{\"48121\": \"100\"}",
			"countynamesall": "Denton",
			"countyfipsall": "48121",
			"imprecise": "FALSE",
			"military": "FALSE",
			"timezone": "America/Chicago"
		},
		"75057": {
			"latitude": "33.04952",
			"longitude": "-96.98383",
			"city": "Lewisville",
			"stateid": "TX",
			"statename": "Texas",
			"zcta": "TRUE",
			"parent_zcta": "",
			"population": "14960",
			"density": "567.1",
			"countyfips": "48121",
			"countyname": "Denton",
			"countyweights": "{\"48121\": \"100\"}",
			"countynamesall": "Denton",
			"countyfipsall": "48121",
			"imprecise": "FALSE",
			"military": "FALSE",
			"timezone": "America/Chicago"
		},
		"75058": {
			"latitude": "33.45012",
			"longitude": "-96.74225",
			"city": "Gunter",
			"stateid": "TX",
			"statename": "Texas",
			"zcta": "TRUE",
			"parent_zcta": "",
			"population": "2666",
			"density": "17.9",
			"countyfips": "48181",
			"countyname": "Grayson",
			"countyweights": "{\"48181\": \"100\"}",
			"countynamesall": "Grayson",
			"countyfipsall": "48181",
			"imprecise": "FALSE",
			"military": "FALSE",
			"timezone": "America/Chicago"
		},
		"75060": {
			"latitude": "32.796",
			"longitude": "-96.95446",
			"city": "Irving",
			"stateid": "TX",
			"statename": "Texas",
			"zcta": "TRUE",
			"parent_zcta": "",
			"population": "47764",
			"density": "1391.5",
			"countyfips": "48113",
			"countyname": "Dallas",
			"countyweights": "{\"48113\": \"100\"}",
			"countynamesall": "Dallas",
			"countyfipsall": "48113",
			"imprecise": "FALSE",
			"military": "FALSE",
			"timezone": "America/Chicago"
		},
		"75061": {
			"latitude": "32.82605",
			"longitude": "-96.9655",
			"city": "Irving",
			"stateid": "TX",
			"statename": "Texas",
			"zcta": "TRUE",
			"parent_zcta": "",
			"population": "54520",
			"density": "1819.7",
			"countyfips": "48113",
			"countyname": "Dallas",
			"countyweights": "{\"48113\": \"100\"}",
			"countynamesall": "Dallas",
			"countyfipsall": "48113",
			"imprecise": "FALSE",
			"military": "FALSE",
			"timezone": "America/Chicago"
		},
		"75062": {
			"latitude": "32.84702",
			"longitude": "-96.95686",
			"city": "Irving",
			"stateid": "TX",
			"statename": "Texas",
			"zcta": "TRUE",
			"parent_zcta": "",
			"population": "49306",
			"density": "1732.9",
			"countyfips": "48113",
			"countyname": "Dallas",
			"countyweights": "{\"48113\": \"100\"}",
			"countynamesall": "Dallas",
			"countyfipsall": "48113",
			"imprecise": "FALSE",
			"military": "FALSE",
			"timezone": "America/Chicago"
		},
		"75063": {
			"latitude": "32.92046",
			"longitude": "-96.98599",
			"city": "Irving",
			"stateid": "TX",
			"statename": "Texas",
			"zcta": "TRUE",
			"parent_zcta": "",
			"population": "40048",
			"density": "1020.9",
			"countyfips": "48113",
			"countyname": "Dallas",
			"countyweights": "{\"48113\": \"100\"}",
			"countynamesall": "Dallas",
			"countyfipsall": "48113",
			"imprecise": "FALSE",
			"military": "FALSE",
			"timezone": "America/Chicago"
		},
		"75065": {
			"latitude": "33.11093",
			"longitude": "-97.0119",
			"city": "Lake Dallas",
			"stateid": "TX",
			"statename": "Texas",
			"zcta": "TRUE",
			"parent_zcta": "",
			"population": "12640",
			"density": "613.8",
			"countyfips": "48121",
			"countyname": "Denton",
			"countyweights": "{\"48121\": \"100\"}",
			"countynamesall": "Denton",
			"countyfipsall": "48121",
			"imprecise": "FALSE",
			"military": "FALSE",
			"timezone": "America/Chicago"
		},
		"75067": {
			"latitude": "33.01371",
			"longitude": "-97.00025",
			"city": "Lewisville",
			"stateid": "TX",
			"statename": "Texas",
			"zcta": "TRUE",
			"parent_zcta": "",
			"population": "68196",
			"density": "1980.9",
			"countyfips": "48121",
			"countyname": "Denton",
			"countyweights": "{\"48121\": \"98.62\", \"48113\": \"1.38\"}",
			"countynamesall": "Denton|Dallas",
			"countyfipsall": "48121|48113",
			"imprecise": "FALSE",
			"military": "FALSE",
			"timezone": "America/Chicago"
		},
		"75068": {
			"latitude": "33.17647",
			"longitude": "-96.95053",
			"city": "Little Elm",
			"stateid": "TX",
			"statename": "Texas",
			"zcta": "TRUE",
			"parent_zcta": "",
			"population": "65991",
			"density": "929.5",
			"countyfips": "48121",
			"countyname": "Denton",
			"countyweights": "{\"48121\": \"100\"}",
			"countynamesall": "Denton",
			"countyfipsall": "48121",
			"imprecise": "FALSE",
			"military": "FALSE",
			"timezone": "America/Chicago"
		},
		"75069": {
			"latitude": "33.16545",
			"longitude": "-96.59468",
			"city": "Mckinney",
			"stateid": "TX",
			"statename": "Texas",
			"zcta": "TRUE",
			"parent_zcta": "",
			"population": "37892",
			"density": "457.0",
			"countyfips": "48085",
			"countyname": "Collin",
			"countyweights": "{\"48085\": \"100\"}",
			"countynamesall": "Collin",
			"countyfipsall": "48085",
			"imprecise": "FALSE",
			"military": "FALSE",
			"timezone": "America/Chicago"
		},
		"75070": {
			"latitude": "33.17311",
			"longitude": "-96.69773",
			"city": "Mckinney",
			"stateid": "TX",
			"statename": "Texas",
			"zcta": "TRUE",
			"parent_zcta": "",
			"population": "104415",
			"density": "1687.8",
			"countyfips": "48085",
			"countyname": "Collin",
			"countyweights": "{\"48085\": \"100\"}",
			"countynamesall": "Collin",
			"countyfipsall": "48085",
			"imprecise": "FALSE",
			"military": "FALSE",
			"timezone": "America/Chicago"
		},
		"75071": {
			"latitude": "33.24663",
			"longitude": "-96.62898",
			"city": "Mckinney",
			"stateid": "TX",
			"statename": "Texas",
			"zcta": "TRUE",
			"parent_zcta": "",
			"population": "55570",
			"density": "272.2",
			"countyfips": "48085",
			"countyname": "Collin",
			"countyweights": "{\"48085\": \"100\"}",
			"countynamesall": "Collin",
			"countyfipsall": "48085",
			"imprecise": "FALSE",
			"military": "FALSE",
			"timezone": "America/Chicago"
		},
		"75074": {
			"latitude": "33.03188",
			"longitude": "-96.67428",
			"city": "Plano",
			"stateid": "TX",
			"statename": "Texas",
			"zcta": "TRUE",
			"parent_zcta": "",
			"population": "52259",
			"density": "1221.7",
			"countyfips": "48085",
			"countyname": "Collin",
			"countyweights": "{\"48085\": \"100\"}",
			"countynamesall": "Collin",
			"countyfipsall": "48085",
			"imprecise": "FALSE",
			"military": "FALSE",
			"timezone": "America/Chicago"
		},
		"75075": {
			"latitude": "33.02137",
			"longitude": "-96.74103",
			"city": "Plano",
			"stateid": "TX",
			"statename": "Texas",
			"zcta": "TRUE",
			"parent_zcta": "",
			"population": "38283",
			"density": "1499.7",
			"countyfips": "48085",
			"countyname": "Collin",
			"countyweights": "{\"48085\": \"100\"}",
			"countynamesall": "Collin",
			"countyfipsall": "48085",
			"imprecise": "FALSE",
			"military": "FALSE",
			"timezone": "America/Chicago"
		},
		"75076": {
			"latitude": "33.79472",
			"longitude": "-96.72168",
			"city": "Pottsboro",
			"stateid": "TX",
			"statename": "Texas",
			"zcta": "TRUE",
			"parent_zcta": "",
			"population": "8156",
			"density": "63.3",
			"countyfips": "48181",
			"countyname": "Grayson",
			"countyweights": "{\"48181\": \"100\"}",
			"countynamesall": "Grayson",
			"countyfipsall": "48181",
			"imprecise": "FALSE",
			"military": "FALSE",
			"timezone": "America/Chicago"
		},
		"75077": {
			"latitude": "33.07886",
			"longitude": "-97.06273",
			"city": "Lewisville",
			"stateid": "TX",
			"statename": "Texas",
			"zcta": "TRUE",
			"parent_zcta": "",
			"population": "37102",
			"density": "1025.0",
			"countyfips": "48121",
			"countyname": "Denton",
			"countyweights": "{\"48121\": \"100\"}",
			"countynamesall": "Denton",
			"countyfipsall": "48121",
			"imprecise": "FALSE",
			"military": "FALSE",
			"timezone": "America/Chicago"
		},
		"75078": {
			"latitude": "33.24672",
			"longitude": "-96.80856",
			"city": "Prosper",
			"stateid": "TX",
			"statename": "Texas",
			"zcta": "TRUE",
			"parent_zcta": "",
			"population": "28803",
			"density": "339.5",
			"countyfips": "48085",
			"countyname": "Collin",
			"countyweights": "{\"48085\": \"92.73\", \"48121\": \"7.27\"}",
			"countynamesall": "Collin|Denton",
			"countyfipsall": "48085|48121",
			"imprecise": "FALSE",
			"military": "FALSE",
			"timezone": "America/Chicago"
		},
		"75080": {
			"latitude": "32.97394",
			"longitude": "-96.74202",
			"city": "Richardson",
			"stateid": "TX",
			"statename": "Texas",
			"zcta": "TRUE",
			"parent_zcta": "",
			"population": "52531",
			"density": "1775.5",
			"countyfips": "48113",
			"countyname": "Dallas",
			"countyweights": "{\"48113\": \"77.52\", \"48085\": \"22.48\"}",
			"countynamesall": "Dallas|Collin",
			"countyfipsall": "48113|48085",
			"imprecise": "FALSE",
			"military": "FALSE",
			"timezone": "America/Chicago"
		},
		"75081": {
			"latitude": "32.94882",
			"longitude": "-96.7102",
			"city": "Richardson",
			"stateid": "TX",
			"statename": "Texas",
			"zcta": "TRUE",
			"parent_zcta": "",
			"population": "40265",
			"density": "1684.8",
			"countyfips": "48113",
			"countyname": "Dallas",
			"countyweights": "{\"48113\": \"100\"}",
			"countynamesall": "Dallas",
			"countyfipsall": "48113",
			"imprecise": "FALSE",
			"military": "FALSE",
			"timezone": "America/Chicago"
		},
		"75082": {
			"latitude": "32.99157",
			"longitude": "-96.66234",
			"city": "Richardson",
			"stateid": "TX",
			"statename": "Texas",
			"zcta": "TRUE",
			"parent_zcta": "",
			"population": "23483",
			"density": "1157.4",
			"countyfips": "48085",
			"countyname": "Collin",
			"countyweights": "{\"48085\": \"88.75\", \"48113\": \"11.25\"}",
			"countynamesall": "Collin|Dallas",
			"countyfipsall": "48085|48113",
			"imprecise": "FALSE",
			"military": "FALSE",
			"timezone": "America/Chicago"
		},
		"75087": {
			"latitude": "32.94172",
			"longitude": "-96.44993",
			"city": "Rockwall",
			"stateid": "TX",
			"statename": "Texas",
			"zcta": "TRUE",
			"parent_zcta": "",
			"population": "35157",
			"density": "518.5",
			"countyfips": "48397",
			"countyname": "Rockwall",
			"countyweights": "{\"48397\": \"99.42\", \"48085\": \"0.58\"}",
			"countynamesall": "Rockwall|Collin",
			"countyfipsall": "48397|48085",
			"imprecise": "FALSE",
			"military": "FALSE",
			"timezone": "America/Chicago"
		},
		"75088": {
			"latitude": "32.89229",
			"longitude": "-96.54917",
			"city": "Rowlett",
			"stateid": "TX",
			"statename": "Texas",
			"zcta": "TRUE",
			"parent_zcta": "",
			"population": "26039",
			"density": "1101.8",
			"countyfips": "48113",
			"countyname": "Dallas",
			"countyweights": "{\"48113\": \"82.23\", \"48397\": \"17.77\"}",
			"countynamesall": "Dallas|Rockwall",
			"countyfipsall": "48113|48397",
			"imprecise": "FALSE",
			"military": "FALSE",
			"timezone": "America/Chicago"
		},
		"75089": {
			"latitude": "32.92975",
			"longitude": "-96.54975",
			"city": "Rowlett",
			"stateid": "TX",
			"statename": "Texas",
			"zcta": "TRUE",
			"parent_zcta": "",
			"population": "36324",
			"density": "1250.7",
			"countyfips": "48113",
			"countyname": "Dallas",
			"countyweights": "{\"48113\": \"95.04\", \"48397\": \"4.96\"}",
			"countynamesall": "Dallas|Rockwall",
			"countyfipsall": "48113|48397",
			"imprecise": "FALSE",
			"military": "FALSE",
			"timezone": "America/Chicago"
		},
		"75090": {
			"latitude": "33.60452",
			"longitude": "-96.54562",
			"city": "Sherman",
			"stateid": "TX",
			"statename": "Texas",
			"zcta": "TRUE",
			"parent_zcta": "",
			"population": "25418",
			"density": "127.6",
			"countyfips": "48181",
			"countyname": "Grayson",
			"countyweights": "{\"48181\": \"100\"}",
			"countynamesall": "Grayson",
			"countyfipsall": "48181",
			"imprecise": "FALSE",
			"military": "FALSE",
			"timezone": "America/Chicago"
		},
		"75092": {
			"latitude": "33.64891",
			"longitude": "-96.70005",
			"city": "Sherman",
			"stateid": "TX",
			"statename": "Texas",
			"zcta": "TRUE",
			"parent_zcta": "",
			"population": "24905",
			"density": "84.8",
			"countyfips": "48181",
			"countyname": "Grayson",
			"countyweights": "{\"48181\": \"100\"}",
			"countynamesall": "Grayson",
			"countyfipsall": "48181",
			"imprecise": "FALSE",
			"military": "FALSE",
			"timezone": "America/Chicago"
		},
		"75093": {
			"latitude": "33.0355",
			"longitude": "-96.81001",
			"city": "Plano",
			"stateid": "TX",
			"statename": "Texas",
			"zcta": "TRUE",
			"parent_zcta": "",
			"population": "46788",
			"density": "1280.3",
			"countyfips": "48085",
			"countyname": "Collin",
			"countyweights": "{\"48085\": \"93.14\", \"48121\": \"6.86\"}",
			"countynamesall": "Collin|Denton",
			"countyfipsall": "48085|48121",
			"imprecise": "FALSE",
			"military": "FALSE",
			"timezone": "America/Chicago"
		},
		"75094": {
			"latitude": "33.01909",
			"longitude": "-96.61509",
			"city": "Plano",
			"stateid": "TX",
			"statename": "Texas",
			"zcta": "TRUE",
			"parent_zcta": "",
			"population": "23239",
			"density": "1286.1",
			"countyfips": "48085",
			"countyname": "Collin",
			"countyweights": "{\"48085\": \"100\"}",
			"countynamesall": "Collin",
			"countyfipsall": "48085",
			"imprecise": "FALSE",
			"military": "FALSE",
			"timezone": "America/Chicago"
		},
		"75098": {
			"latitude": "33.0119",
			"longitude": "-96.53479",
			"city": "Wylie",
			"stateid": "TX",
			"statename": "Texas",
			"zcta": "TRUE",
			"parent_zcta": "",
			"population": "56376",
			"density": "660.8",
			"countyfips": "48085",
			"countyname": "Collin",
			"countyweights": "{\"48085\": \"93.4\", \"48113\": \"3.76\", \"48397\": \"2.84\"}",
			"countynamesall": "Collin|Dallas|Rockwall",
			"countyfipsall": "48085|48113|48397",
			"imprecise": "FALSE",
			"military": "FALSE",
			"timezone": "America/Chicago"
		},
		"75101": {
			"latitude": "32.27003",
			"longitude": "-96.70239",
			"city": "Bardwell",
			"stateid": "TX",
			"statename": "Texas",
			"zcta": "TRUE",
			"parent_zcta": "",
			"population": "517",
			"density": "242.6",
			"countyfips": "48139",
			"countyname": "Ellis",
			"countyweights": "{\"48139\": \"100\"}",
			"countynamesall": "Ellis",
			"countyfipsall": "48139",
			"imprecise": "FALSE",
			"military": "FALSE",
			"timezone": "America/Chicago"
		},
		"75102": {
			"latitude": "32.06629",
			"longitude": "-96.64223",
			"city": "Barry",
			"stateid": "TX",
			"statename": "Texas",
			"zcta": "TRUE",
			"parent_zcta": "",
			"population": "1358",
			"density": "8.6",
			"countyfips": "48349",
			"countyname": "Navarro",
			"countyweights": "{\"48349\": \"100\"}",
			"countynamesall": "Navarro",
			"countyfipsall": "48349",
			"imprecise": "FALSE",
			"military": "FALSE",
			"timezone": "America/Chicago"
		},
		"75103": {
			"latitude": "32.51192",
			"longitude": "-95.88235",
			"city": "Canton",
			"stateid": "TX",
			"statename": "Texas",
			"zcta": "TRUE",
			"parent_zcta": "",
			"population": "14530",
			"density": "28.1",
			"countyfips": "48467",
			"countyname": "Van Zandt",
			"countyweights": "{\"48467\": \"100\"}",
			"countynamesall": "Van Zandt",
			"countyfipsall": "48467",
			"imprecise": "FALSE",
			"military": "FALSE",
			"timezone": "America/Chicago"
		},
		"75104": {
			"latitude": "32.58042",
			"longitude": "-96.96613",
			"city": "Cedar Hill",
			"stateid": "TX",
			"statename": "Texas",
			"zcta": "TRUE",
			"parent_zcta": "",
			"population": "49171",
			"density": "486.2",
			"countyfips": "48113",
			"countyname": "Dallas",
			"countyweights": "{\"48113\": \"99.1\", \"48139\": \"0.9\"}",
			"countynamesall": "Dallas|Ellis",
			"countyfipsall": "48113|48139",
			"imprecise": "FALSE",
			"military": "FALSE",
			"timezone": "America/Chicago"
		},
		"75105": {
			"latitude": "32.26654",
			"longitude": "-96.37522",
			"city": "Chatfield",
			"stateid": "TX",
			"statename": "Texas",
			"zcta": "TRUE",
			"parent_zcta": "",
			"population": "161",
			"density": "1.2",
			"countyfips": "48349",
			"countyname": "Navarro",
			"countyweights": "{\"48349\": \"100\"}",
			"countynamesall": "Navarro",
			"countyfipsall": "48349",
			"imprecise": "FALSE",
			"military": "FALSE",
			"timezone": "America/Chicago"
		},
		"75109": {
			"latitude": "32.04523",
			"longitude": "-96.35405",
			"city": "Corsicana",
			"stateid": "TX",
			"statename": "Texas",
			"zcta": "TRUE",
			"parent_zcta": "",
			"population": "4384",
			"density": "14.6",
			"countyfips": "48349",
			"countyname": "Navarro",
			"countyweights": "{\"48349\": \"100\"}",
			"countynamesall": "Navarro",
			"countyfipsall": "48349",
			"imprecise": "FALSE",
			"military": "FALSE",
			"timezone": "America/Chicago"
		},
		"75110": {
			"latitude": "32.08693",
			"longitude": "-96.52879",
			"city": "Corsicana",
			"stateid": "TX",
			"statename": "Texas",
			"zcta": "TRUE",
			"parent_zcta": "",
			"population": "28558",
			"density": "73.5",
			"countyfips": "48349",
			"countyname": "Navarro",
			"countyweights": "{\"48349\": \"100\"}",
			"countynamesall": "Navarro",
			"countyfipsall": "48349",
			"imprecise": "FALSE",
			"military": "FALSE",
			"timezone": "America/Chicago"
		},
		"75114": {
			"latitude": "32.61016",
			"longitude": "-96.44553",
			"city": "Crandall",
			"stateid": "TX",
			"statename": "Texas",
			"zcta": "TRUE",
			"parent_zcta": "",
			"population": "6829",
			"density": "61.0",
			"countyfips": "48257",
			"countyname": "Kaufman",
			"countyweights": "{\"48257\": \"100\"}",
			"countynamesall": "Kaufman",
			"countyfipsall": "48257",
			"imprecise": "FALSE",
			"military": "FALSE",
			"timezone": "America/Chicago"
		},
		"75115": {
			"latitude": "32.59888",
			"longitude": "-96.86374",
			"city": "Desoto",
			"stateid": "TX",
			"statename": "Texas",
			"zcta": "TRUE",
			"parent_zcta": "",
			"population": "52916",
			"density": "931.5",
			"countyfips": "48113",
			"countyname": "Dallas",
			"countyweights": "{\"48113\": \"100\"}",
			"countynamesall": "Dallas",
			"countyfipsall": "48113",
			"imprecise": "FALSE",
			"military": "FALSE",
			"timezone": "America/Chicago"
		},
		"75116": {
			"latitude": "32.66017",
			"longitude": "-96.91393",
			"city": "Duncanville",
			"stateid": "TX",
			"statename": "Texas",
			"zcta": "TRUE",
			"parent_zcta": "",
			"population": "19867",
			"density": "1497.7",
			"countyfips": "48113",
			"countyname": "Dallas",
			"countyweights": "{\"48113\": \"100\"}",
			"countynamesall": "Dallas",
			"countyfipsall": "48113",
			"imprecise": "FALSE",
			"military": "FALSE",
			"timezone": "America/Chicago"
		},
		"75117": {
			"latitude": "32.71183",
			"longitude": "-95.85077",
			"city": "Edgewood",
			"stateid": "TX",
			"statename": "Texas",
			"zcta": "TRUE",
			"parent_zcta": "",
			"population": "3984",
			"density": "32.8",
			"countyfips": "48467",
			"countyname": "Van Zandt",
			"countyweights": "{\"48467\": \"100\"}",
			"countynamesall": "Van Zandt",
			"countyfipsall": "48467",
			"imprecise": "FALSE",
			"military": "FALSE",
			"timezone": "America/Chicago"
		},
		"75119": {
			"latitude": "32.32976",
			"longitude": "-96.59334",
			"city": "Ennis",
			"stateid": "TX",
			"statename": "Texas",
			"zcta": "TRUE",
			"parent_zcta": "",
			"population": "28598",
			"density": "41.7",
			"countyfips": "48139",
			"countyname": "Ellis",
			"countyweights": "{\"48139\": \"99.3\", \"48349\": \"0.7\"}",
			"countynamesall": "Ellis|Navarro",
			"countyfipsall": "48139|48349",
			"imprecise": "FALSE",
			"military": "FALSE",
			"timezone": "America/Chicago"
		},
		"75124": {
			"latitude": "32.32673",
			"longitude": "-95.9724",
			"city": "Eustace",
			"stateid": "TX",
			"statename": "Texas",
			"zcta": "TRUE",
			"parent_zcta": "",
			"population": "4255",
			"density": "17.7",
			"countyfips": "48213",
			"countyname": "Henderson",
			"countyweights": "{\"48213\": \"79.19\", \"48467\": \"20.81\"}",
			"countynamesall": "Henderson|Van Zandt",
			"countyfipsall": "48213|48467",
			"imprecise": "FALSE",
			"military": "FALSE",
			"timezone": "America/Chicago"
		},
		"75125": {
			"latitude": "32.53137",
			"longitude": "-96.62477",
			"city": "Ferris",
			"stateid": "TX",
			"statename": "Texas",
			"zcta": "TRUE",
			"parent_zcta": "",
			"population": "6326",
			"density": "35.1",
			"countyfips": "48139",
			"countyname": "Ellis",
			"countyweights": "{\"48139\": \"95.13\", \"48113\": \"4.87\"}",
			"countynamesall": "Ellis|Dallas",
			"countyfipsall": "48139|48113",
			"imprecise": "FALSE",
			"military": "FALSE",
			"timezone": "America/Chicago"
		},
		"75126": {
			"latitude": "32.74205",
			"longitude": "-96.45185",
			"city": "Forney",
			"stateid": "TX",
			"statename": "Texas",
			"zcta": "TRUE",
			"parent_zcta": "",
			"population": "48987",
			"density": "244.6",
			"countyfips": "48257",
			"countyname": "Kaufman",
			"countyweights": "{\"48257\": \"100\"}",
			"countynamesall": "Kaufman",
			"countyfipsall": "48257",
			"imprecise": "FALSE",
			"military": "FALSE",
			"timezone": "America/Chicago"
		},
		"75127": {
			"latitude": "32.69116",
			"longitude": "-95.79336",
			"city": "Fruitvale",
			"stateid": "TX",
			"statename": "Texas",
			"zcta": "TRUE",
			"parent_zcta": "",
			"population": "1705",
			"density": "24.8",
			"countyfips": "48467",
			"countyname": "Van Zandt",
			"countyweights": "{\"48467\": \"100\"}",
			"countynamesall": "Van Zandt",
			"countyfipsall": "48467",
			"imprecise": "FALSE",
			"military": "FALSE",
			"timezone": "America/Chicago"
		},
		"75132": {
			"latitude": "32.94537",
			"longitude": "-96.37375",
			"city": "Fate",
			"stateid": "TX",
			"statename": "Texas",
			"zcta": "TRUE",
			"parent_zcta": "",
			"population": "1559",
			"density": "405.9",
			"countyfips": "48397",
			"countyname": "Rockwall",
			"countyweights": "{\"48397\": \"100\"}",
			"countynamesall": "Rockwall",
			"countyfipsall": "48397",
			"imprecise": "FALSE",
			"military": "FALSE",
			"timezone": "America/Chicago"
		},
		"75134": {
			"latitude": "32.6201",
			"longitude": "-96.783",
			"city": "Lancaster",
			"stateid": "TX",
			"statename": "Texas",
			"zcta": "TRUE",
			"parent_zcta": "",
			"population": "21879",
			"density": "826.6",
			"countyfips": "48113",
			"countyname": "Dallas",
			"countyweights": "{\"48113\": \"100\"}",
			"countynamesall": "Dallas",
			"countyfipsall": "48113",
			"imprecise": "FALSE",
			"military": "FALSE",
			"timezone": "America/Chicago"
		},
		"75135": {
			"latitude": "33.06521",
			"longitude": "-96.22289",
			"city": "Caddo Mills",
			"stateid": "TX",
			"statename": "Texas",
			"zcta": "TRUE",
			"parent_zcta": "",
			"population": "7363",
			"density": "45.7",
			"countyfips": "48231",
			"countyname": "Hunt",
			"countyweights": "{\"48231\": \"100\"}",
			"countynamesall": "Hunt",
			"countyfipsall": "48231",
			"imprecise": "FALSE",
			"military": "FALSE",
			"timezone": "America/Chicago"
		},
		"75137": {
			"latitude": "32.634",
			"longitude": "-96.91176",
			"city": "Duncanville",
			"stateid": "TX",
			"statename": "Texas",
			"zcta": "TRUE",
			"parent_zcta": "",
			"population": "19548",
			"density": "1240.4",
			"countyfips": "48113",
			"countyname": "Dallas",
			"countyweights": "{\"48113\": \"100\"}",
			"countynamesall": "Dallas",
			"countyfipsall": "48113",
			"imprecise": "FALSE",
			"military": "FALSE",
			"timezone": "America/Chicago"
		},
		"75140": {
			"latitude": "32.64691",
			"longitude": "-95.69145",
			"city": "Grand Saline",
			"stateid": "TX",
			"statename": "Texas",
			"zcta": "TRUE",
			"parent_zcta": "",
			"population": "7595",
			"density": "26.1",
			"countyfips": "48467",
			"countyname": "Van Zandt",
			"countyweights": "{\"48467\": \"100\"}",
			"countynamesall": "Van Zandt",
			"countyfipsall": "48467",
			"imprecise": "FALSE",
			"military": "FALSE",
			"timezone": "America/Chicago"
		},
		"75141": {
			"latitude": "32.63998",
			"longitude": "-96.69464",
			"city": "Hutchins",
			"stateid": "TX",
			"statename": "Texas",
			"zcta": "TRUE",
			"parent_zcta": "",
			"population": "5782",
			"density": "195.6",
			"countyfips": "48113",
			"countyname": "Dallas",
			"countyweights": "{\"48113\": \"100\"}",
			"countynamesall": "Dallas",
			"countyfipsall": "48113",
			"imprecise": "FALSE",
			"military": "FALSE",
			"timezone": "America/Chicago"
		},
		"75142": {
			"latitude": "32.57357",
			"longitude": "-96.24717",
			"city": "Kaufman",
			"stateid": "TX",
			"statename": "Texas",
			"zcta": "TRUE",
			"parent_zcta": "",
			"population": "19261",
			"density": "42.9",
			"countyfips": "48257",
			"countyname": "Kaufman",
			"countyweights": "{\"48257\": \"100\"}",
			"countynamesall": "Kaufman",
			"countyfipsall": "48257",
			"imprecise": "FALSE",
			"military": "FALSE",
			"timezone": "America/Chicago"
		},
		"75143": {
			"latitude": "32.36358",
			"longitude": "-96.24817",
			"city": "Kemp",
			"stateid": "TX",
			"statename": "Texas",
			"zcta": "TRUE",
			"parent_zcta": "",
			"population": "14510",
			"density": "31.5",
			"countyfips": "48213",
			"countyname": "Henderson",
			"countyweights": "{\"48213\": \"53.51\", \"48257\": \"46.49\"}",
			"countynamesall": "Henderson|Kaufman",
			"countyfipsall": "48213|48257",
			"imprecise": "FALSE",
			"military": "FALSE",
			"timezone": "America/Chicago"
		},
		"75144": {
			"latitude": "32.11313",
			"longitude": "-96.20885",
			"city": "Kerens",
			"stateid": "TX",
			"statename": "Texas",
			"zcta": "TRUE",
			"parent_zcta": "",
			"population": "3668",
			"density": "8.2",
			"countyfips": "48349",
			"countyname": "Navarro",
			"countyweights": "{\"48349\": \"100\"}",
			"countynamesall": "Navarro",
			"countyfipsall": "48349",
			"imprecise": "FALSE",
			"military": "FALSE",
			"timezone": "America/Chicago"
		},
		"75146": {
			"latitude": "32.57462",
			"longitude": "-96.75068",
			"city": "Lancaster",
			"stateid": "TX",
			"statename": "Texas",
			"zcta": "TRUE",
			"parent_zcta": "",
			"population": "19701",
			"density": "229.1",
			"countyfips": "48113",
			"countyname": "Dallas",
			"countyweights": "{\"48113\": \"99.32\", \"48139\": \"0.68\"}",
			"countynamesall": "Dallas|Ellis",
			"countyfipsall": "48113|48139",
			"imprecise": "FALSE",
			"military": "FALSE",
			"timezone": "America/Chicago"
		},
		"75147": {
			"latitude": "32.43298",
			"longitude": "-96.0774",
			"city": "Mabank",
			"stateid": "TX",
			"statename": "Texas",
			"zcta": "TRUE",
			"parent_zcta": "",
			"population": "6636",
			"density": "27.3",
			"countyfips": "48257",
			"countyname": "Kaufman",
			"countyweights": "{\"48257\": \"56.12\", \"48467\": \"34.13\", \"48213\": \"9.75\"}",
			"countynamesall": "Kaufman|Van Zandt|Henderson",
			"countyfipsall": "48257|48467|48213",
			"imprecise": "FALSE",
			"military": "FALSE",
			"timezone": "America/Chicago"
		},
		"75148": {
			"latitude": "32.12461",
			"longitude": "-96.01216",
			"city": "Malakoff",
			"stateid": "TX",
			"statename": "Texas",
			"zcta": "TRUE",
			"parent_zcta": "",
			"population": "5961",
			"density": "26.3",
			"countyfips": "48213",
			"countyname": "Henderson",
			"countyweights": "{\"48213\": \"100\"}",
			"countynamesall": "Henderson",
			"countyfipsall": "48213",
			"imprecise": "FALSE",
			"military": "FALSE",
			"timezone": "America/Chicago"
		},
		"75149": {
			"latitude": "32.77003",
			"longitude": "-96.61487",
			"city": "Mesquite",
			"stateid": "TX",
			"statename": "Texas",
			"zcta": "TRUE",
			"parent_zcta": "",
			"population": "56473",
			"density": "1373.1",
			"countyfips": "48113",
			"countyname": "Dallas",
			"countyweights": "{\"48113\": \"100\"}",
			"countynamesall": "Dallas",
			"countyfipsall": "48113",
			"imprecise": "FALSE",
			"military": "FALSE",
			"timezone": "America/Chicago"
		},
		"75150": {
			"latitude": "32.81577",
			"longitude": "-96.63039",
			"city": "Mesquite",
			"stateid": "TX",
			"statename": "Texas",
			"zcta": "TRUE",
			"parent_zcta": "",
			"population": "60671",
			"density": "1835.1",
			"countyfips": "48113",
			"countyname": "Dallas",
			"countyweights": "{\"48113\": \"100\"}",
			"countynamesall": "Dallas",
			"countyfipsall": "48113",
			"imprecise": "FALSE",
			"military": "FALSE",
			"timezone": "America/Chicago"
		},
		"75152": {
			"latitude": "32.43647",
			"longitude": "-96.68038",
			"city": "Palmer",
			"stateid": "TX",
			"statename": "Texas",
			"zcta": "TRUE",
			"parent_zcta": "",
			"population": "5195",
			"density": "48.9",
			"countyfips": "48139",
			"countyname": "Ellis",
			"countyweights": "{\"48139\": \"100\"}",
			"countynamesall": "Ellis",
			"countyfipsall": "48139",
			"imprecise": "FALSE",
			"military": "FALSE",
			"timezone": "America/Chicago"
		},
		"75153": {
			"latitude": "32.15027",
			"longitude": "-96.32856",
			"city": "Powell",
			"stateid": "TX",
			"statename": "Texas",
			"zcta": "TRUE",
			"parent_zcta": "",
			"population": "441",
			"density": "7.2",
			"countyfips": "48349",
			"countyname": "Navarro",
			"countyweights": "{\"48349\": \"100\"}",
			"countynamesall": "Navarro",
			"countyfipsall": "48349",
			"imprecise": "FALSE",
			"military": "FALSE",
			"timezone": "America/Chicago"
		},
		"75154": {
			"latitude": "32.52281",
			"longitude": "-96.81015",
			"city": "Red Oak",
			"stateid": "TX",
			"statename": "Texas",
			"zcta": "TRUE",
			"parent_zcta": "",
			"population": "40947",
			"density": "336.3",
			"countyfips": "48139",
			"countyname": "Ellis",
			"countyweights": "{\"48139\": \"75.44\", \"48113\": \"24.56\"}",
			"countynamesall": "Ellis|Dallas",
			"countyfipsall": "48139|48113",
			"imprecise": "FALSE",
			"military": "FALSE",
			"timezone": "America/Chicago"
		},
		"75155": {
			"latitude": "32.22573",
			"longitude": "-96.47318",
			"city": "Rice",
			"stateid": "TX",
			"statename": "Texas",
			"zcta": "TRUE",
			"parent_zcta": "",
			"population": "3233",
			"density": "32.8",
			"countyfips": "48349",
			"countyname": "Navarro",
			"countyweights": "{\"48349\": \"100\"}",
			"countynamesall": "Navarro",
			"countyfipsall": "48349",
			"imprecise": "FALSE",
			"military": "FALSE",
			"timezone": "America/Chicago"
		},
		"75156": {
			"latitude": "32.28688",
			"longitude": "-96.09979",
			"city": "Mabank",
			"stateid": "TX",
			"statename": "Texas",
			"zcta": "TRUE",
			"parent_zcta": "",
			"population": "16578",
			"density": "204.5",
			"countyfips": "48213",
			"countyname": "Henderson",
			"countyweights": "{\"48213\": \"100\"}",
			"countynamesall": "Henderson",
			"countyfipsall": "48213",
			"imprecise": "FALSE",
			"military": "FALSE",
			"timezone": "America/Chicago"
		},
		"75157": {
			"latitude": "32.46227",
			"longitude": "-96.44684",
			"city": "Rosser",
			"stateid": "TX",
			"statename": "Texas",
			"zcta": "TRUE",
			"parent_zcta": "",
			"population": "261",
			"density": "59.3",
			"countyfips": "48257",
			"countyname": "Kaufman",
			"countyweights": "{\"48257\": \"100\"}",
			"countynamesall": "Kaufman",
			"countyfipsall": "48257",
			"imprecise": "FALSE",
			"military": "FALSE",
			"timezone": "America/Chicago"
		},
		"75158": {
			"latitude": "32.46222",
			"longitude": "-96.39662",
			"city": "Scurry",
			"stateid": "TX",
			"statename": "Texas",
			"zcta": "TRUE",
			"parent_zcta": "",
			"population": "4191",
			"density": "18.4",
			"countyfips": "48257",
			"countyname": "Kaufman",
			"countyweights": "{\"48257\": \"100\"}",
			"countynamesall": "Kaufman",
			"countyfipsall": "48257",
			"imprecise": "FALSE",
			"military": "FALSE",
			"timezone": "America/Chicago"
		},
		"75159": {
			"latitude": "32.60748",
			"longitude": "-96.54087",
			"city": "Seagoville",
			"stateid": "TX",
			"statename": "Texas",
			"zcta": "TRUE",
			"parent_zcta": "",
			"population": "20098",
			"density": "128.6",
			"countyfips": "48113",
			"countyname": "Dallas",
			"countyweights": "{\"48113\": \"88.21\", \"48257\": \"11.79\"}",
			"countynamesall": "Dallas|Kaufman",
			"countyfipsall": "48113|48257",
			"imprecise": "FALSE",
			"military": "FALSE",
			"timezone": "America/Chicago"
		},
		"75160": {
			"latitude": "32.76169",
			"longitude": "-96.30017",
			"city": "Terrell",
			"stateid": "TX",
			"statename": "Texas",
			"zcta": "TRUE",
			"parent_zcta": "",
			"population": "25525",
			"density": "82.1",
			"countyfips": "48257",
			"countyname": "Kaufman",
			"countyweights": "{\"48257\": \"93.96\", \"48231\": \"5.89\", \"48397\": \"0.15\"}",
			"countynamesall": "Kaufman|Hunt|Rockwall",
			"countyfipsall": "48257|48231|48397",
			"imprecise": "FALSE",
			"military": "FALSE",
			"timezone": "America/Chicago"
		},
		"75161": {
			"latitude": "32.73742",
			"longitude": "-96.17115",
			"city": "Terrell",
			"stateid": "TX",
			"statename": "Texas",
			"zcta": "TRUE",
			"parent_zcta": "",
			"population": "6529",
			"density": "22.1",
			"countyfips": "48257",
			"countyname": "Kaufman",
			"countyweights": "{\"48257\": \"100\"}",
			"countynamesall": "Kaufman",
			"countyfipsall": "48257",
			"imprecise": "FALSE",
			"military": "FALSE",
			"timezone": "America/Chicago"
		},
		"75163": {
			"latitude": "32.16759",
			"longitude": "-96.11031",
			"city": "Trinidad",
			"stateid": "TX",
			"statename": "Texas",
			"zcta": "TRUE",
			"parent_zcta": "",
			"population": "2716",
			"density": "31.0",
			"countyfips": "48213",
			"countyname": "Henderson",
			"countyweights": "{\"48213\": \"100\"}",
			"countynamesall": "Henderson",
			"countyfipsall": "48213",
			"imprecise": "FALSE",
			"military": "FALSE",
			"timezone": "America/Chicago"
		},
		"75164": {
			"latitude": "33.06593",
			"longitude": "-96.30793",
			"city": "Josephine",
			"stateid": "TX",
			"statename": "Texas",
			"zcta": "TRUE",
			"parent_zcta": "",
			"population": "633",
			"density": "107.2",
			"countyfips": "48085",
			"countyname": "Collin",
			"countyweights": "{\"48085\": \"100\"}",
			"countynamesall": "Collin",
			"countyfipsall": "48085",
			"imprecise": "FALSE",
			"military": "FALSE",
			"timezone": "America/Chicago"
		},
		"75165": {
			"latitude": "32.36912",
			"longitude": "-96.79744",
			"city": "Waxahachie",
			"stateid": "TX",
			"statename": "Texas",
			"zcta": "TRUE",
			"parent_zcta": "",
			"population": "45059",
			"density": "154.8",
			"countyfips": "48139",
			"countyname": "Ellis",
			"countyweights": "{\"48139\": \"100\"}",
			"countynamesall": "Ellis",
			"countyfipsall": "48139",
			"imprecise": "FALSE",
			"military": "FALSE",
			"timezone": "America/Chicago"
		},
		"75166": {
			"latitude": "33.01234",
			"longitude": "-96.45026",
			"city": "Lavon",
			"stateid": "TX",
			"statename": "Texas",
			"zcta": "TRUE",
			"parent_zcta": "",
			"population": "4395",
			"density": "128.4",
			"countyfips": "48085",
			"countyname": "Collin",
			"countyweights": "{\"48085\": \"100\"}",
			"countynamesall": "Collin",
			"countyfipsall": "48085",
			"imprecise": "FALSE",
			"military": "FALSE",
			"timezone": "America/Chicago"
		},
		"75167": {
			"latitude": "32.35888",
			"longitude": "-96.91515",
			"city": "Waxahachie",
			"stateid": "TX",
			"statename": "Texas",
			"zcta": "TRUE",
			"parent_zcta": "",
			"population": "12170",
			"density": "48.1",
			"countyfips": "48139",
			"countyname": "Ellis",
			"countyweights": "{\"48139\": \"100\"}",
			"countynamesall": "Ellis",
			"countyfipsall": "48139",
			"imprecise": "FALSE",
			"military": "FALSE",
			"timezone": "America/Chicago"
		},
		"75169": {
			"latitude": "32.70454",
			"longitude": "-95.99657",
			"city": "Wills Point",
			"stateid": "TX",
			"statename": "Texas",
			"zcta": "TRUE",
			"parent_zcta": "",
			"population": "14142",
			"density": "25.5",
			"countyfips": "48467",
			"countyname": "Van Zandt",
			"countyweights": "{\"48467\": \"83.45\", \"48231\": \"12.26\", \"48257\": \"4.3\"}",
			"countynamesall": "Van Zandt|Hunt|Kaufman",
			"countyfipsall": "48467|48231|48257",
			"imprecise": "FALSE",
			"military": "FALSE",
			"timezone": "America/Chicago"
		},
		"75172": {
			"latitude": "32.60482",
			"longitude": "-96.67515",
			"city": "Wilmer",
			"stateid": "TX",
			"statename": "Texas",
			"zcta": "TRUE",
			"parent_zcta": "",
			"population": "4619",
			"density": "153.0",
			"countyfips": "48113",
			"countyname": "Dallas",
			"countyweights": "{\"48113\": \"100\"}",
			"countynamesall": "Dallas",
			"countyfipsall": "48113",
			"imprecise": "FALSE",
			"military": "FALSE",
			"timezone": "America/Chicago"
		},
		"75173": {
			"latitude": "33.05923",
			"longitude": "-96.39106",
			"city": "Nevada",
			"stateid": "TX",
			"statename": "Texas",
			"zcta": "TRUE",
			"parent_zcta": "",
			"population": "4409",
			"density": "55.9",
			"countyfips": "48085",
			"countyname": "Collin",
			"countyweights": "{\"48085\": \"100\"}",
			"countynamesall": "Collin",
			"countyfipsall": "48085",
			"imprecise": "FALSE",
			"military": "FALSE",
			"timezone": "America/Chicago"
		},
		"75180": {
			"latitude": "32.71893",
			"longitude": "-96.61839",
			"city": "Balch Springs",
			"stateid": "TX",
			"statename": "Texas",
			"zcta": "TRUE",
			"parent_zcta": "",
			"population": "23941",
			"density": "1205.4",
			"countyfips": "48113",
			"countyname": "Dallas",
			"countyweights": "{\"48113\": \"100\"}",
			"countynamesall": "Dallas",
			"countyfipsall": "48113",
			"imprecise": "FALSE",
			"military": "FALSE",
			"timezone": "America/Chicago"
		},
		"75181": {
			"latitude": "32.72697",
			"longitude": "-96.55519",
			"city": "Mesquite",
			"stateid": "TX",
			"statename": "Texas",
			"zcta": "TRUE",
			"parent_zcta": "",
			"population": "28263",
			"density": "620.2",
			"countyfips": "48113",
			"countyname": "Dallas",
			"countyweights": "{\"48113\": \"100\"}",
			"countynamesall": "Dallas",
			"countyfipsall": "48113",
			"imprecise": "FALSE",
			"military": "FALSE",
			"timezone": "America/Chicago"
		},
		"75182": {
			"latitude": "32.80014",
			"longitude": "-96.55405",
			"city": "Sunnyvale",
			"stateid": "TX",
			"statename": "Texas",
			"zcta": "TRUE",
			"parent_zcta": "",
			"population": "6325",
			"density": "138.9",
			"countyfips": "48113",
			"countyname": "Dallas",
			"countyweights": "{\"48113\": \"100\"}",
			"countynamesall": "Dallas",
			"countyfipsall": "48113",
			"imprecise": "FALSE",
			"military": "FALSE",
			"timezone": "America/Chicago"
		},
		"75189": {
			"latitude": "32.95183",
			"longitude": "-96.31192",
			"city": "Royse City",
			"stateid": "TX",
			"statename": "Texas",
			"zcta": "TRUE",
			"parent_zcta": "",
			"population": "29135",
			"density": "101.3",
			"countyfips": "48397",
			"countyname": "Rockwall",
			"countyweights": "{\"48397\": \"65.97\", \"48231\": \"23.9\", \"48085\": \"10.13\"}",
			"countynamesall": "Rockwall|Hunt|Collin",
			"countyfipsall": "48397|48231|48085",
			"imprecise": "FALSE",
			"military": "FALSE",
			"timezone": "America/Chicago"
		},
		"75201": {
			"latitude": "32.78773",
			"longitude": "-96.79936",
			"city": "Dallas",
			"stateid": "TX",
			"statename": "Texas",
			"zcta": "TRUE",
			"parent_zcta": "",
			"population": "17476",
			"density": "4660.6",
			"countyfips": "48113",
			"countyname": "Dallas",
			"countyweights": "{\"48113\": \"100\"}",
			"countynamesall": "Dallas",
			"countyfipsall": "48113",
			"imprecise": "FALSE",
			"military": "FALSE",
			"timezone": "America/Chicago"
		},
		"75202": {
			"latitude": "32.77924",
			"longitude": "-96.80472",
			"city": "Dallas",
			"stateid": "TX",
			"statename": "Texas",
			"zcta": "TRUE",
			"parent_zcta": "",
			"population": "2312",
			"density": "1269.1",
			"countyfips": "48113",
			"countyname": "Dallas",
			"countyweights": "{\"48113\": \"100\"}",
			"countynamesall": "Dallas",
			"countyfipsall": "48113",
			"imprecise": "FALSE",
			"military": "FALSE",
			"timezone": "America/Chicago"
		},
		"75203": {
			"latitude": "32.74627",
			"longitude": "-96.803",
			"city": "Dallas",
			"stateid": "TX",
			"statename": "Texas",
			"zcta": "TRUE",
			"parent_zcta": "",
			"population": "17367",
			"density": "1417.7",
			"countyfips": "48113",
			"countyname": "Dallas",
			"countyweights": "{\"48113\": \"100\"}",
			"countynamesall": "Dallas",
			"countyfipsall": "48113",
			"imprecise": "FALSE",
			"military": "FALSE",
			"timezone": "America/Chicago"
		},
		"75204": {
			"latitude": "32.80204",
			"longitude": "-96.78881",
			"city": "Dallas",
			"stateid": "TX",
			"statename": "Texas",
			"zcta": "TRUE",
			"parent_zcta": "",
			"population": "30537",
			"density": "4609.7",
			"countyfips": "48113",
			"countyname": "Dallas",
			"countyweights": "{\"48113\": \"100\"}",
			"countynamesall": "Dallas",
			"countyfipsall": "48113",
			"imprecise": "FALSE",
			"military": "FALSE",
			"timezone": "America/Chicago"
		},
		"75205": {
			"latitude": "32.83657",
			"longitude": "-96.79619",
			"city": "Dallas",
			"stateid": "TX",
			"statename": "Texas",
			"zcta": "TRUE",
			"parent_zcta": "",
			"population": "24877",
			"density": "2207.5",
			"countyfips": "48113",
			"countyname": "Dallas",
			"countyweights": "{\"48113\": \"100\"}",
			"countynamesall": "Dallas",
			"countyfipsall": "48113",
			"imprecise": "FALSE",
			"military": "FALSE",
			"timezone": "America/Chicago"
		},
		"75206": {
			"latitude": "32.83155",
			"longitude": "-96.77027",
			"city": "Dallas",
			"stateid": "TX",
			"statename": "Texas",
			"zcta": "TRUE",
			"parent_zcta": "",
			"population": "39010",
			"density": "3542.1",
			"countyfips": "48113",
			"countyname": "Dallas",
			"countyweights": "{\"48113\": \"100\"}",
			"countynamesall": "Dallas",
			"countyfipsall": "48113",
			"imprecise": "FALSE",
			"military": "FALSE",
			"timezone": "America/Chicago"
		},
		"75207": {
			"latitude": "32.78676",
			"longitude": "-96.82139",
			"city": "Dallas",
			"stateid": "TX",
			"statename": "Texas",
			"zcta": "TRUE",
			"parent_zcta": "",
			"population": "7702",
			"density": "773.1",
			"countyfips": "48113",
			"countyname": "Dallas",
			"countyweights": "{\"48113\": \"100\"}",
			"countynamesall": "Dallas",
			"countyfipsall": "48113",
			"imprecise": "FALSE",
			"military": "FALSE",
			"timezone": "America/Chicago"
		},
		"75208": {
			"latitude": "32.75376",
			"longitude": "-96.83984",
			"city": "Dallas",
			"stateid": "TX",
			"statename": "Texas",
			"zcta": "TRUE",
			"parent_zcta": "",
			"population": "29706",
			"density": "1930.7",
			"countyfips": "48113",
			"countyname": "Dallas",
			"countyweights": "{\"48113\": \"100\"}",
			"countynamesall": "Dallas",
			"countyfipsall": "48113",
			"imprecise": "FALSE",
			"military": "FALSE",
			"timezone": "America/Chicago"
		},
		"75209": {
			"latitude": "32.84885",
			"longitude": "-96.82587",
			"city": "Dallas",
			"stateid": "TX",
			"statename": "Texas",
			"zcta": "TRUE",
			"parent_zcta": "",
			"population": "14308",
			"density": "1562.8",
			"countyfips": "48113",
			"countyname": "Dallas",
			"countyweights": "{\"48113\": \"100\"}",
			"countynamesall": "Dallas",
			"countyfipsall": "48113",
			"imprecise": "FALSE",
			"military": "FALSE",
			"timezone": "America/Chicago"
		},
		"75210": {
			"latitude": "32.77135",
			"longitude": "-96.74596",
			"city": "Dallas",
			"stateid": "TX",
			"statename": "Texas",
			"zcta": "TRUE",
			"parent_zcta": "",
			"population": "8673",
			"density": "1478.2",
			"countyfips": "48113",
			"countyname": "Dallas",
			"countyweights": "{\"48113\": \"100\"}",
			"countynamesall": "Dallas",
			"countyfipsall": "48113",
			"imprecise": "FALSE",
			"military": "FALSE",
			"timezone": "America/Chicago"
		},
		"75211": {
			"latitude": "32.73493",
			"longitude": "-96.90297",
			"city": "Dallas",
			"stateid": "TX",
			"statename": "Texas",
			"zcta": "TRUE",
			"parent_zcta": "",
			"population": "77570",
			"density": "1695.7",
			"countyfips": "48113",
			"countyname": "Dallas",
			"countyweights": "{\"48113\": \"100\"}",
			"countynamesall": "Dallas",
			"countyfipsall": "48113",
			"imprecise": "FALSE",
			"military": "FALSE",
			"timezone": "America/Chicago"
		},
		"75212": {
			"latitude": "32.78142",
			"longitude": "-96.87913",
			"city": "Dallas",
			"stateid": "TX",
			"statename": "Texas",
			"zcta": "TRUE",
			"parent_zcta": "",
			"population": "26720",
			"density": "1005.2",
			"countyfips": "48113",
			"countyname": "Dallas",
			"countyweights": "{\"48113\": \"100\"}",
			"countynamesall": "Dallas",
			"countyfipsall": "48113",
			"imprecise": "FALSE",
			"military": "FALSE",
			"timezone": "America/Chicago"
		},
		"75214": {
			"latitude": "32.82865",
			"longitude": "-96.74543",
			"city": "Dallas",
			"stateid": "TX",
			"statename": "Texas",
			"zcta": "TRUE",
			"parent_zcta": "",
			"population": "34824",
			"density": "1858.0",
			"countyfips": "48113",
			"countyname": "Dallas",
			"countyweights": "{\"48113\": \"100\"}",
			"countynamesall": "Dallas",
			"countyfipsall": "48113",
			"imprecise": "FALSE",
			"military": "FALSE",
			"timezone": "America/Chicago"
		},
		"75215": {
			"latitude": "32.75076",
			"longitude": "-96.7581",
			"city": "Dallas",
			"stateid": "TX",
			"statename": "Texas",
			"zcta": "TRUE",
			"parent_zcta": "",
			"population": "17818",
			"density": "817.6",
			"countyfips": "48113",
			"countyname": "Dallas",
			"countyweights": "{\"48113\": \"100\"}",
			"countynamesall": "Dallas",
			"countyfipsall": "48113",
			"imprecise": "FALSE",
			"military": "FALSE",
			"timezone": "America/Chicago"
		},
		"75216": {
			"latitude": "32.71165",
			"longitude": "-96.78371",
			"city": "Dallas",
			"stateid": "TX",
			"statename": "Texas",
			"zcta": "TRUE",
			"parent_zcta": "",
			"population": "53327",
			"density": "1408.8",
			"countyfips": "48113",
			"countyname": "Dallas",
			"countyweights": "{\"48113\": \"100\"}",
			"countynamesall": "Dallas",
			"countyfipsall": "48113",
			"imprecise": "FALSE",
			"military": "FALSE",
			"timezone": "America/Chicago"
		},
		"75217": {
			"latitude": "32.71217",
			"longitude": "-96.68118",
			"city": "Dallas",
			"stateid": "TX",
			"statename": "Texas",
			"zcta": "TRUE",
			"parent_zcta": "",
			"population": "89163",
			"density": "1259.9",
			"countyfips": "48113",
			"countyname": "Dallas",
			"countyweights": "{\"48113\": \"100\"}",
			"countynamesall": "Dallas",
			"countyfipsall": "48113",
			"imprecise": "FALSE",
			"military": "FALSE",
			"timezone": "America/Chicago"
		},
		"75218": {
			"latitude": "32.84154",
			"longitude": "-96.70237",
			"city": "Dallas",
			"stateid": "TX",
			"statename": "Texas",
			"zcta": "TRUE",
			"parent_zcta": "",
			"population": "22529",
			"density": "1244.8",
			"countyfips": "48113",
			"countyname": "Dallas",
			"countyweights": "{\"48113\": \"100\"}",
			"countynamesall": "Dallas",
			"countyfipsall": "48113",
			"imprecise": "FALSE",
			"military": "FALSE",
			"timezone": "America/Chicago"
		},
		"75219": {
			"latitude": "32.81179",
			"longitude": "-96.81292",
			"city": "Dallas",
			"stateid": "TX",
			"statename": "Texas",
			"zcta": "TRUE",
			"parent_zcta": "",
			"population": "25120",
			"density": "4425.3",
			"countyfips": "48113",
			"countyname": "Dallas",
			"countyweights": "{\"48113\": \"100\"}",
			"countynamesall": "Dallas",
			"countyfipsall": "48113",
			"imprecise": "FALSE",
			"military": "FALSE",
			"timezone": "America/Chicago"
		},
		"75220": {
			"latitude": "32.86664",
			"longitude": "-96.87615",
			"city": "Dallas",
			"stateid": "TX",
			"statename": "Texas",
			"zcta": "TRUE",
			"parent_zcta": "",
			"population": "42009",
			"density": "1433.0",
			"countyfips": "48113",
			"countyname": "Dallas",
			"countyweights": "{\"48113\": \"100\"}",
			"countynamesall": "Dallas",
			"countyfipsall": "48113",
			"imprecise": "FALSE",
			"military": "FALSE",
			"timezone": "America/Chicago"
		},
		"75223": {
			"latitude": "32.79223",
			"longitude": "-96.74399",
			"city": "Dallas",
			"stateid": "TX",
			"statename": "Texas",
			"zcta": "TRUE",
			"parent_zcta": "",
			"population": "14941",
			"density": "1671.0",
			"countyfips": "48113",
			"countyname": "Dallas",
			"countyweights": "{\"48113\": \"100\"}",
			"countynamesall": "Dallas",
			"countyfipsall": "48113",
			"imprecise": "FALSE",
			"military": "FALSE",
			"timezone": "America/Chicago"
		},
		"75224": {
			"latitude": "32.711",
			"longitude": "-96.83994",
			"city": "Dallas",
			"stateid": "TX",
			"statename": "Texas",
			"zcta": "TRUE",
			"parent_zcta": "",
			"population": "37592",
			"density": "2484.4",
			"countyfips": "48113",
			"countyname": "Dallas",
			"countyweights": "{\"48113\": \"100\"}",
			"countynamesall": "Dallas",
			"countyfipsall": "48113",
			"imprecise": "FALSE",
			"military": "FALSE",
			"timezone": "America/Chicago"
		},
		"75225": {
			"latitude": "32.86521",
			"longitude": "-96.79098",
			"city": "Dallas",
			"stateid": "TX",
			"statename": "Texas",
			"zcta": "TRUE",
			"parent_zcta": "",
			"population": "21736",
			"density": "1777.8",
			"countyfips": "48113",
			"countyname": "Dallas",
			"countyweights": "{\"48113\": \"100\"}",
			"countynamesall": "Dallas",
			"countyfipsall": "48113",
			"imprecise": "FALSE",
			"military": "FALSE",
			"timezone": "America/Chicago"
		},
		"75226": {
			"latitude": "32.7828",
			"longitude": "-96.77632",
			"city": "Dallas",
			"stateid": "TX",
			"statename": "Texas",
			"zcta": "TRUE",
			"parent_zcta": "",
			"population": "4579",
			"density": "1578.6",
			"countyfips": "48113",
			"countyname": "Dallas",
			"countyweights": "{\"48113\": \"100\"}",
			"countynamesall": "Dallas",
			"countyfipsall": "48113",
			"imprecise": "FALSE",
			"military": "FALSE",
			"timezone": "America/Chicago"
		},
		"75227": {
			"latitude": "32.77",
			"longitude": "-96.68728",
			"city": "Dallas",
			"stateid": "TX",
			"statename": "Texas",
			"zcta": "TRUE",
			"parent_zcta": "",
			"population": "59924",
			"density": "2030.1",
			"countyfips": "48113",
			"countyname": "Dallas",
			"countyweights": "{\"48113\": \"100\"}",
			"countynamesall": "Dallas",
			"countyfipsall": "48113",
			"imprecise": "FALSE",
			"military": "FALSE",
			"timezone": "America/Chicago"
		},
		"75228": {
			"latitude": "32.82443",
			"longitude": "-96.67996",
			"city": "Dallas",
			"stateid": "TX",
			"statename": "Texas",
			"zcta": "TRUE",
			"parent_zcta": "",
			"population": "73976",
			"density": "2503.9",
			"countyfips": "48113",
			"countyname": "Dallas",
			"countyweights": "{\"48113\": \"100\"}",
			"countynamesall": "Dallas",
			"countyfipsall": "48113",
			"imprecise": "FALSE",
			"military": "FALSE",
			"timezone": "America/Chicago"
		},
		"75229": {
			"latitude": "32.89374",
			"longitude": "-96.86441",
			"city": "Dallas",
			"stateid": "TX",
			"statename": "Texas",
			"zcta": "TRUE",
			"parent_zcta": "",
			"population": "32322",
			"density": "995.8",
			"countyfips": "48113",
			"countyname": "Dallas",
			"countyweights": "{\"48113\": \"100\"}",
			"countynamesall": "Dallas",
			"countyfipsall": "48113",
			"imprecise": "FALSE",
			"military": "FALSE",
			"timezone": "America/Chicago"
		},
		"75230": {
			"latitude": "32.90229",
			"longitude": "-96.79207",
			"city": "Dallas",
			"stateid": "TX",
			"statename": "Texas",
			"zcta": "TRUE",
			"parent_zcta": "",
			"population": "27489",
			"density": "1465.0",
			"countyfips": "48113",
			"countyname": "Dallas",
			"countyweights": "{\"48113\": \"100\"}",
			"countynamesall": "Dallas",
			"countyfipsall": "48113",
			"imprecise": "FALSE",
			"military": "FALSE",
			"timezone": "America/Chicago"
		},
		"75231": {
			"latitude": "32.87764",
			"longitude": "-96.74976",
			"city": "Dallas",
			"stateid": "TX",
			"statename": "Texas",
			"zcta": "TRUE",
			"parent_zcta": "",
			"population": "40371",
			"density": "2765.2",
			"countyfips": "48113",
			"countyname": "Dallas",
			"countyweights": "{\"48113\": \"100\"}",
			"countynamesall": "Dallas",
			"countyfipsall": "48113",
			"imprecise": "FALSE",
			"military": "FALSE",
			"timezone": "America/Chicago"
		},
		"75232": {
			"latitude": "32.66095",
			"longitude": "-96.84018",
			"city": "Dallas",
			"stateid": "TX",
			"statename": "Texas",
			"zcta": "TRUE",
			"parent_zcta": "",
			"population": "31453",
			"density": "1468.7",
			"countyfips": "48113",
			"countyname": "Dallas",
			"countyweights": "{\"48113\": \"100\"}",
			"countynamesall": "Dallas",
			"countyfipsall": "48113",
			"imprecise": "FALSE",
			"military": "FALSE",
			"timezone": "America/Chicago"
		},
		"75233": {
			"latitude": "32.70435",
			"longitude": "-96.87298",
			"city": "Dallas",
			"stateid": "TX",
			"statename": "Texas",
			"zcta": "TRUE",
			"parent_zcta": "",
			"population": "17280",
			"density": "1926.7",
			"countyfips": "48113",
			"countyname": "Dallas",
			"countyweights": "{\"48113\": \"100\"}",
			"countynamesall": "Dallas",
			"countyfipsall": "48113",
			"imprecise": "FALSE",
			"military": "FALSE",
			"timezone": "America/Chicago"
		},
		"75234": {
			"latitude": "32.92366",
			"longitude": "-96.89042",
			"city": "Dallas",
			"stateid": "TX",
			"statename": "Texas",
			"zcta": "TRUE",
			"parent_zcta": "",
			"population": "37160",
			"density": "1384.9",
			"countyfips": "48113",
			"countyname": "Dallas",
			"countyweights": "{\"48113\": \"100\"}",
			"countynamesall": "Dallas",
			"countyfipsall": "48113",
			"imprecise": "FALSE",
			"military": "FALSE",
			"timezone": "America/Chicago"
		},
		"75235": {
			"latitude": "32.8325",
			"longitude": "-96.84849",
			"city": "Dallas",
			"stateid": "TX",
			"statename": "Texas",
			"zcta": "TRUE",
			"parent_zcta": "",
			"population": "18429",
			"density": "1058.8",
			"countyfips": "48113",
			"countyname": "Dallas",
			"countyweights": "{\"48113\": \"100\"}",
			"countynamesall": "Dallas",
			"countyfipsall": "48113",
			"imprecise": "FALSE",
			"military": "FALSE",
			"timezone": "America/Chicago"
		},
		"75236": {
			"latitude": "32.68557",
			"longitude": "-96.93576",
			"city": "Dallas",
			"stateid": "TX",
			"statename": "Texas",
			"zcta": "TRUE",
			"parent_zcta": "",
			"population": "18137",
			"density": "560.7",
			"countyfips": "48113",
			"countyname": "Dallas",
			"countyweights": "{\"48113\": \"100\"}",
			"countynamesall": "Dallas",
			"countyfipsall": "48113",
			"imprecise": "FALSE",
			"military": "FALSE",
			"timezone": "America/Chicago"
		},
		"75237": {
			"latitude": "32.66564",
			"longitude": "-96.8731",
			"city": "Dallas",
			"stateid": "TX",
			"statename": "Texas",
			"zcta": "TRUE",
			"parent_zcta": "",
			"population": "21423",
			"density": "1243.8",
			"countyfips": "48113",
			"countyname": "Dallas",
			"countyweights": "{\"48113\": \"100\"}",
			"countynamesall": "Dallas",
			"countyfipsall": "48113",
			"imprecise": "FALSE",
			"military": "FALSE",
			"timezone": "America/Chicago"
		},
		"75238": {
			"latitude": "32.87853",
			"longitude": "-96.70782",
			"city": "Dallas",
			"stateid": "TX",
			"statename": "Texas",
			"zcta": "TRUE",
			"parent_zcta": "",
			"population": "33049",
			"density": "1940.2",
			"countyfips": "48113",
			"countyname": "Dallas",
			"countyweights": "{\"48113\": \"100\"}",
			"countynamesall": "Dallas",
			"countyfipsall": "48113",
			"imprecise": "FALSE",
			"military": "FALSE",
			"timezone": "America/Chicago"
		},
		"75240": {
			"latitude": "32.93174",
			"longitude": "-96.78854",
			"city": "Dallas",
			"stateid": "TX",
			"statename": "Texas",
			"zcta": "TRUE",
			"parent_zcta": "",
			"population": "28534",
			"density": "2920.8",
			"countyfips": "48113",
			"countyname": "Dallas",
			"countyweights": "{\"48113\": \"100\"}",
			"countynamesall": "Dallas",
			"countyfipsall": "48113",
			"imprecise": "FALSE",
			"military": "FALSE",
			"timezone": "America/Chicago"
		},
		"75241": {
			"latitude": "32.66571",
			"longitude": "-96.75904",
			"city": "Dallas",
			"stateid": "TX",
			"statename": "Texas",
			"zcta": "TRUE",
			"parent_zcta": "",
			"population": "31562",
			"density": "453.6",
			"countyfips": "48113",
			"countyname": "Dallas",
			"countyweights": "{\"48113\": \"100\"}",
			"countynamesall": "Dallas",
			"countyfipsall": "48113",
			"imprecise": "FALSE",
			"military": "FALSE",
			"timezone": "America/Chicago"
		},
		"75243": {
			"latitude": "32.91211",
			"longitude": "-96.73563",
			"city": "Dallas",
			"stateid": "TX",
			"statename": "Texas",
			"zcta": "TRUE",
			"parent_zcta": "",
			"population": "68308",
			"density": "3031.6",
			"countyfips": "48113",
			"countyname": "Dallas",
			"countyweights": "{\"48113\": \"100\"}",
			"countynamesall": "Dallas",
			"countyfipsall": "48113",
			"imprecise": "FALSE",
			"military": "FALSE",
			"timezone": "America/Chicago"
		},
		"75244": {
			"latitude": "32.92542",
			"longitude": "-96.83663",
			"city": "Dallas",
			"stateid": "TX",
			"statename": "Texas",
			"zcta": "TRUE",
			"parent_zcta": "",
			"population": "13254",
			"density": "1109.6",
			"countyfips": "48113",
			"countyname": "Dallas",
			"countyweights": "{\"48113\": \"100\"}",
			"countynamesall": "Dallas",
			"countyfipsall": "48113",
			"imprecise": "FALSE",
			"military": "FALSE",
			"timezone": "America/Chicago"
		},
		"75246": {
			"latitude": "32.79292",
			"longitude": "-96.7733",
			"city": "Dallas",
			"stateid": "TX",
			"statename": "Texas",
			"zcta": "TRUE",
			"parent_zcta": "",
			"population": "2760",
			"density": "2359.3",
			"countyfips": "48113",
			"countyname": "Dallas",
			"countyweights": "{\"48113\": \"100\"}",
			"countynamesall": "Dallas",
			"countyfipsall": "48113",
			"imprecise": "FALSE",
			"military": "FALSE",
			"timezone": "America/Chicago"
		},
		"75247": {
			"latitude": "32.81358",
			"longitude": "-96.87748",
			"city": "Dallas",
			"stateid": "TX",
			"statename": "Texas",
			"zcta": "TRUE",
			"parent_zcta": "",
			"population": "792",
			"density": "46.8",
			"countyfips": "48113",
			"countyname": "Dallas",
			"countyweights": "{\"48113\": \"100\"}",
			"countynamesall": "Dallas",
			"countyfipsall": "48113",
			"imprecise": "FALSE",
			"military": "FALSE",
			"timezone": "America/Chicago"
		},
		"75248": {
			"latitude": "32.96955",
			"longitude": "-96.79528",
			"city": "Dallas",
			"stateid": "TX",
			"statename": "Texas",
			"zcta": "TRUE",
			"parent_zcta": "",
			"population": "37373",
			"density": "1956.4",
			"countyfips": "48113",
			"countyname": "Dallas",
			"countyweights": "{\"48113\": \"99.29\", \"48085\": \"0.71\"}",
			"countynamesall": "Dallas|Collin",
			"countyfipsall": "48113|48085",
			"imprecise": "FALSE",
			"military": "FALSE",
			"timezone": "America/Chicago"
		},
		"75249": {
			"latitude": "32.64442",
			"longitude": "-96.9588",
			"city": "Dallas",
			"stateid": "TX",
			"statename": "Texas",
			"zcta": "TRUE",
			"parent_zcta": "",
			"population": "17649",
			"density": "1482.2",
			"countyfips": "48113",
			"countyname": "Dallas",
			"countyweights": "{\"48113\": \"100\"}",
			"countynamesall": "Dallas",
			"countyfipsall": "48113",
			"imprecise": "FALSE",
			"military": "FALSE",
			"timezone": "America/Chicago"
		},
		"75251": {
			"latitude": "32.91901",
			"longitude": "-96.77193",
			"city": "Dallas",
			"stateid": "TX",
			"statename": "Texas",
			"zcta": "TRUE",
			"parent_zcta": "",
			"population": "2861",
			"density": "2514.2",
			"countyfips": "48113",
			"countyname": "Dallas",
			"countyweights": "{\"48113\": \"100\"}",
			"countynamesall": "Dallas",
			"countyfipsall": "48113",
			"imprecise": "FALSE",
			"military": "FALSE",
			"timezone": "America/Chicago"
		},
		"75252": {
			"latitude": "32.99723",
			"longitude": "-96.79081",
			"city": "Dallas",
			"stateid": "TX",
			"statename": "Texas",
			"zcta": "TRUE",
			"parent_zcta": "",
			"population": "26867",
			"density": "2047.7",
			"countyfips": "48085",
			"countyname": "Collin",
			"countyweights": "{\"48085\": \"97.44\", \"48113\": \"2.56\"}",
			"countynamesall": "Collin|Dallas",
			"countyfipsall": "48085|48113",
			"imprecise": "FALSE",
			"military": "FALSE",
			"timezone": "America/Chicago"
		},
		"75253": {
			"latitude": "32.67499",
			"longitude": "-96.61286",
			"city": "Dallas",
			"stateid": "TX",
			"statename": "Texas",
			"zcta": "TRUE",
			"parent_zcta": "",
			"population": "23900",
			"density": "676.7",
			"countyfips": "48113",
			"countyname": "Dallas",
			"countyweights": "{\"48113\": \"100\"}",
			"countynamesall": "Dallas",
			"countyfipsall": "48113",
			"imprecise": "FALSE",
			"military": "FALSE",
			"timezone": "America/Chicago"
		},
		"75254": {
			"latitude": "32.94562",
			"longitude": "-96.80133",
			"city": "Dallas",
			"stateid": "TX",
			"statename": "Texas",
			"zcta": "TRUE",
			"parent_zcta": "",
			"population": "26929",
			"density": "3130.8",
			"countyfips": "48113",
			"countyname": "Dallas",
			"countyweights": "{\"48113\": \"100\"}",
			"countynamesall": "Dallas",
			"countyfipsall": "48113",
			"imprecise": "FALSE",
			"military": "FALSE",
			"timezone": "America/Chicago"
		},
		"75270": {
			"latitude": "32.78119",
			"longitude": "-96.80223",
			"city": "Dallas",
			"stateid": "TX",
			"statename": "Texas",
			"zcta": "TRUE",
			"parent_zcta": "",
			"population": "0",
			"density": "0.0",
			"countyfips": "48113",
			"countyname": "Dallas",
			"countyweights": "{\"48113\": \"0\"}",
			"countynamesall": "Dallas",
			"countyfipsall": "48113",
			"imprecise": "FALSE",
			"military": "FALSE",
			"timezone": "America/Chicago"
		},
		"75287": {
			"latitude": "33.00032",
			"longitude": "-96.84114",
			"city": "Dallas",
			"stateid": "TX",
			"statename": "Texas",
			"zcta": "TRUE",
			"parent_zcta": "",
			"population": "55673",
			"density": "3839.7",
			"countyfips": "48121",
			"countyname": "Denton",
			"countyweights": "{\"48121\": \"52.75\", \"48085\": \"47.25\", \"48113\": \"0\"}",
			"countynamesall": "Denton|Collin|Dallas",
			"countyfipsall": "48121|48085|48113",
			"imprecise": "FALSE",
			"military": "FALSE",
			"timezone": "America/Chicago"
		},
		"75390": {
			"latitude": "32.81419",
			"longitude": "-96.8408",
			"city": "Dallas",
			"stateid": "TX",
			"statename": "Texas",
			"zcta": "TRUE",
			"parent_zcta": "",
			"population": "0",
			"density": "0.0",
			"countyfips": "48113",
			"countyname": "Dallas",
			"countyweights": "{\"48113\": \"0\"}",
			"countynamesall": "Dallas",
			"countyfipsall": "48113",
			"imprecise": "FALSE",
			"military": "FALSE",
			"timezone": "America/Chicago"
		},
		"75401": {
			"latitude": "33.18426",
			"longitude": "-96.11952",
			"city": "Greenville",
			"stateid": "TX",
			"statename": "Texas",
			"zcta": "TRUE",
			"parent_zcta": "",
			"population": "19146",
			"density": "71.1",
			"countyfips": "48231",
			"countyname": "Hunt",
			"countyweights": "{\"48231\": \"100\"}",
			"countynamesall": "Hunt",
			"countyfipsall": "48231",
			"imprecise": "FALSE",
			"military": "FALSE",
			"timezone": "America/Chicago"
		},
		"75402": {
			"latitude": "33.06879",
			"longitude": "-96.08534",
			"city": "Greenville",
			"stateid": "TX",
			"statename": "Texas",
			"zcta": "TRUE",
			"parent_zcta": "",
			"population": "18087",
			"density": "77.3",
			"countyfips": "48231",
			"countyname": "Hunt",
			"countyweights": "{\"48231\": \"100\"}",
			"countynamesall": "Hunt",
			"countyfipsall": "48231",
			"imprecise": "FALSE",
			"military": "FALSE",
			"timezone": "America/Chicago"
		},
		"75407": {
			"latitude": "33.15089",
			"longitude": "-96.48796",
			"city": "Princeton",
			"stateid": "TX",
			"statename": "Texas",
			"zcta": "TRUE",
			"parent_zcta": "",
			"population": "17978",
			"density": "140.5",
			"countyfips": "48085",
			"countyname": "Collin",
			"countyweights": "{\"48085\": \"100\"}",
			"countynamesall": "Collin",
			"countyfipsall": "48085",
			"imprecise": "FALSE",
			"military": "FALSE",
			"timezone": "America/Chicago"
		},
		"75409": {
			"latitude": "33.35196",
			"longitude": "-96.52734",
			"city": "Anna",
			"stateid": "TX",
			"statename": "Texas",
			"zcta": "TRUE",
			"parent_zcta": "",
			"population": "16349",
			"density": "78.7",
			"countyfips": "48085",
			"countyname": "Collin",
			"countyweights": "{\"48085\": \"100\"}",
			"countynamesall": "Collin",
			"countyfipsall": "48085",
			"imprecise": "FALSE",
			"military": "FALSE",
			"timezone": "America/Chicago"
		},
		"75410": {
			"latitude": "32.79101",
			"longitude": "-95.63456",
			"city": "Alba",
			"stateid": "TX",
			"statename": "Texas",
			"zcta": "TRUE",
			"parent_zcta": "",
			"population": "4954",
			"density": "23.3",
			"countyfips": "48499",
			"countyname": "Wood",
			"countyweights": "{\"48499\": \"82.16\", \"48379\": \"17.84\"}",
			"countynamesall": "Wood|Rains",
			"countyfipsall": "48499|48379",
			"imprecise": "FALSE",
			"military": "FALSE",
			"timezone": "America/Chicago"
		},
		"75411": {
			"latitude": "33.86196",
			"longitude": "-95.64855",
			"city": "Arthur City",
			"stateid": "TX",
			"statename": "Texas",
			"zcta": "TRUE",
			"parent_zcta": "",
			"population": "889",
			"density": "4.4",
			"countyfips": "48277",
			"countyname": "Lamar",
			"countyweights": "{\"48277\": \"100\"}",
			"countynamesall": "Lamar",
			"countyfipsall": "48277",
			"imprecise": "FALSE",
			"military": "FALSE",
			"timezone": "America/Chicago"
		},
		"75412": {
			"latitude": "33.79984",
			"longitude": "-95.15232",
			"city": "Bagwell",
			"stateid": "TX",
			"statename": "Texas",
			"zcta": "TRUE",
			"parent_zcta": "",
			"population": "457",
			"density": "1.2",
			"countyfips": "48387",
			"countyname": "Red River",
			"countyweights": "{\"48387\": \"100\"}",
			"countynamesall": "Red River",
			"countyfipsall": "48387",
			"imprecise": "FALSE",
			"military": "FALSE",
			"timezone": "America/Chicago"
		},
		"75413": {
			"latitude": "33.4414",
			"longitude": "-96.17912",
			"city": "Bailey",
			"stateid": "TX",
			"statename": "Texas",
			"zcta": "TRUE",
			"parent_zcta": "",
			"population": "282",
			"density": "77.5",
			"countyfips": "48147",
			"countyname": "Fannin",
			"countyweights": "{\"48147\": \"100\"}",
			"countynamesall": "Fannin",
			"countyfipsall": "48147",
			"imprecise": "FALSE",
			"military": "FALSE",
			"timezone": "America/Chicago"
		},
		"75414": {
			"latitude": "33.62333",
			"longitude": "-96.43179",
			"city": "Bells",
			"stateid": "TX",
			"statename": "Texas",
			"zcta": "TRUE",
			"parent_zcta": "",
			"population": "3416",
			"density": "27.0",
			"countyfips": "48181",
			"countyname": "Grayson",
			"countyweights": "{\"48181\": \"100\"}",
			"countynamesall": "Grayson",
			"countyfipsall": "48181",
			"imprecise": "FALSE",
			"military": "FALSE",
			"timezone": "America/Chicago"
		},
		"75415": {
			"latitude": "33.45985",
			"longitude": "-95.75133",
			"city": "Ben Franklin",
			"stateid": "TX",
			"statename": "Texas",
			"zcta": "TRUE",
			"parent_zcta": "",
			"population": "240",
			"density": "8.8",
			"countyfips": "48119",
			"countyname": "Delta",
			"countyweights": "{\"48119\": \"100\"}",
			"countynamesall": "Delta",
			"countyfipsall": "48119",
			"imprecise": "FALSE",
			"military": "FALSE",
			"timezone": "America/Chicago"
		},
		"75416": {
			"latitude": "33.67825",
			"longitude": "-95.35442",
			"city": "Blossom",
			"stateid": "TX",
			"statename": "Texas",
			"zcta": "TRUE",
			"parent_zcta": "",
			"population": "3070",
			"density": "16.0",
			"countyfips": "48277",
			"countyname": "Lamar",
			"countyweights": "{\"48277\": \"100\"}",
			"countynamesall": "Lamar",
			"countyfipsall": "48277",
			"imprecise": "FALSE",
			"military": "FALSE",
			"timezone": "America/Chicago"
		},
		"75417": {
			"latitude": "33.43887",
			"longitude": "-95.13134",
			"city": "Bogata",
			"stateid": "TX",
			"statename": "Texas",
			"zcta": "TRUE",
			"parent_zcta": "",
			"population": "2688",
			"density": "6.3",
			"countyfips": "48387",
			"countyname": "Red River",
			"countyweights": "{\"48387\": \"100\"}",
			"countynamesall": "Red River",
			"countyfipsall": "48387",
			"imprecise": "FALSE",
			"military": "FALSE",
			"timezone": "America/Chicago"
		},
		"75418": {
			"latitude": "33.57269",
			"longitude": "-96.17766",
			"city": "Bonham",
			"stateid": "TX",
			"statename": "Texas",
			"zcta": "TRUE",
			"parent_zcta": "",
			"population": "14571",
			"density": "40.3",
			"countyfips": "48147",
			"countyname": "Fannin",
			"countyweights": "{\"48147\": \"100\"}",
			"countynamesall": "Fannin",
			"countyfipsall": "48147",
			"imprecise": "FALSE",
			"military": "FALSE",
			"timezone": "America/Chicago"
		},
		"75420": {
			"latitude": "33.053",
			"longitude": "-95.72612",
			"city": "Brashear",
			"stateid": "TX",
			"statename": "Texas",
			"zcta": "TRUE",
			"parent_zcta": "",
			"population": "1052",
			"density": "11.1",
			"countyfips": "48223",
			"countyname": "Hopkins",
			"countyweights": "{\"48223\": \"100\"}",
			"countynamesall": "Hopkins",
			"countyfipsall": "48223",
			"imprecise": "FALSE",
			"military": "FALSE",
			"timezone": "America/Chicago"
		},
		"75421": {
			"latitude": "33.64665",
			"longitude": "-95.7172",
			"city": "Brookston",
			"stateid": "TX",
			"statename": "Texas",
			"zcta": "TRUE",
			"parent_zcta": "",
			"population": "666",
			"density": "4.7",
			"countyfips": "48277",
			"countyname": "Lamar",
			"countyweights": "{\"48277\": \"100\"}",
			"countynamesall": "Lamar",
			"countyfipsall": "48277",
			"imprecise": "FALSE",
			"military": "FALSE",
			"timezone": "America/Chicago"
		},
		"75422": {
			"latitude": "33.13937",
			"longitude": "-95.93198",
			"city": "Campbell",
			"stateid": "TX",
			"statename": "Texas",
			"zcta": "TRUE",
			"parent_zcta": "",
			"population": "3088",
			"density": "16.3",
			"countyfips": "48231",
			"countyname": "Hunt",
			"countyweights": "{\"48231\": \"100\"}",
			"countynamesall": "Hunt",
			"countyfipsall": "48231",
			"imprecise": "FALSE",
			"military": "FALSE",
			"timezone": "America/Chicago"
		},
		"75423": {
			"latitude": "33.28614",
			"longitude": "-96.19999",
			"city": "Celeste",
			"stateid": "TX",
			"statename": "Texas",
			"zcta": "TRUE",
			"parent_zcta": "",
			"population": "3110",
			"density": "14.8",
			"countyfips": "48231",
			"countyname": "Hunt",
			"countyweights": "{\"48231\": \"98.89\", \"48147\": \"1.11\"}",
			"countynamesall": "Hunt|Fannin",
			"countyfipsall": "48231|48147",
			"imprecise": "FALSE",
			"military": "FALSE",
			"timezone": "America/Chicago"
		},
		"75424": {
			"latitude": "33.30659",
			"longitude": "-96.38586",
			"city": "Blue Ridge",
			"stateid": "TX",
			"statename": "Texas",
			"zcta": "TRUE",
			"parent_zcta": "",
			"population": "3024",
			"density": "17.5",
			"countyfips": "48085",
			"countyname": "Collin",
			"countyweights": "{\"48085\": \"93.9\", \"48147\": \"6.1\"}",
			"countynamesall": "Collin|Fannin",
			"countyfipsall": "48085|48147",
			"imprecise": "FALSE",
			"military": "FALSE",
			"timezone": "America/Chicago"
		},
		"75426": {
			"latitude": "33.65539",
			"longitude": "-95.00488",
			"city": "Clarksville",
			"stateid": "TX",
			"statename": "Texas",
			"zcta": "TRUE",
			"parent_zcta": "",
			"population": "4393",
			"density": "5.2",
			"countyfips": "48387",
			"countyname": "Red River",
			"countyweights": "{\"48387\": \"100\"}",
			"countynamesall": "Red River",
			"countyfipsall": "48387",
			"imprecise": "FALSE",
			"military": "FALSE",
			"timezone": "America/Chicago"
		},
		"75428": {
			"latitude": "33.26847",
			"longitude": "-95.91606",
			"city": "Commerce",
			"stateid": "TX",
			"statename": "Texas",
			"zcta": "TRUE",
			"parent_zcta": "",
			"population": "11371",
			"density": "51.1",
			"countyfips": "48231",
			"countyname": "Hunt",
			"countyweights": "{\"48231\": \"97.27\", \"48119\": \"2.73\"}",
			"countynamesall": "Hunt|Delta",
			"countyfipsall": "48231|48119",
			"imprecise": "FALSE",
			"military": "FALSE",
			"timezone": "America/Chicago"
		},
		"75431": {
			"latitude": "33.01166",
			"longitude": "-95.46369",
			"city": "Como",
			"stateid": "TX",
			"statename": "Texas",
			"zcta": "TRUE",
			"parent_zcta": "",
			"population": "2122",
			"density": "13.9",
			"countyfips": "48223",
			"countyname": "Hopkins",
			"countyweights": "{\"48223\": \"88.45\", \"48499\": \"11.55\"}",
			"countynamesall": "Hopkins|Wood",
			"countyfipsall": "48223|48499",
			"imprecise": "FALSE",
			"military": "FALSE",
			"timezone": "America/Chicago"
		},
		"75432": {
			"latitude": "33.39605",
			"longitude": "-95.67442",
			"city": "Cooper",
			"stateid": "TX",
			"statename": "Texas",
			"zcta": "TRUE",
			"parent_zcta": "",
			"population": "3504",
			"density": "12.8",
			"countyfips": "48119",
			"countyname": "Delta",
			"countyweights": "{\"48119\": \"100\"}",
			"countynamesall": "Delta",
			"countyfipsall": "48119",
			"imprecise": "FALSE",
			"military": "FALSE",
			"timezone": "America/Chicago"
		},
		"75433": {
			"latitude": "33.10767",
			"longitude": "-95.80424",
			"city": "Cumby",
			"stateid": "TX",
			"statename": "Texas",
			"zcta": "TRUE",
			"parent_zcta": "",
			"population": "2808",
			"density": "10.4",
			"countyfips": "48223",
			"countyname": "Hopkins",
			"countyweights": "{\"48223\": \"100\"}",
			"countynamesall": "Hopkins",
			"countyfipsall": "48223",
			"imprecise": "FALSE",
			"military": "FALSE",
			"timezone": "America/Chicago"
		},
		"75435": {
			"latitude": "33.48223",
			"longitude": "-95.31354",
			"city": "Deport",
			"stateid": "TX",
			"statename": "Texas",
			"zcta": "TRUE",
			"parent_zcta": "",
			"population": "944",
			"density": "5.4",
			"countyfips": "48277",
			"countyname": "Lamar",
			"countyweights": "{\"48277\": \"84.98\", \"48387\": \"15.02\"}",
			"countynamesall": "Lamar|Red River",
			"countyfipsall": "48277|48387",
			"imprecise": "FALSE",
			"military": "FALSE",
			"timezone": "America/Chicago"
		},
		"75436": {
			"latitude": "33.71282",
			"longitude": "-95.25156",
			"city": "Detroit",
			"stateid": "TX",
			"statename": "Texas",
			"zcta": "TRUE",
			"parent_zcta": "",
			"population": "2480",
			"density": "5.8",
			"countyfips": "48387",
			"countyname": "Red River",
			"countyweights": "{\"48387\": \"95.52\", \"48277\": \"4.48\"}",
			"countynamesall": "Red River|Lamar",
			"countyfipsall": "48387|48277",
			"imprecise": "FALSE",
			"military": "FALSE",
			"timezone": "America/Chicago"
		},
		"75437": {
			"latitude": "33.25841",
			"longitude": "-95.46899",
			"city": "Dike",
			"stateid": "TX",
			"statename": "Texas",
			"zcta": "TRUE",
			"parent_zcta": "",
			"population": "1377",
			"density": "8.8",
			"countyfips": "48223",
			"countyname": "Hopkins",
			"countyweights": "{\"48223\": \"100\"}",
			"countynamesall": "Hopkins",
			"countyfipsall": "48223",
			"imprecise": "FALSE",
			"military": "FALSE",
			"timezone": "America/Chicago"
		},
		"75438": {
			"latitude": "33.60829",
			"longitude": "-96.06541",
			"city": "Dodd City",
			"stateid": "TX",
			"statename": "Texas",
			"zcta": "TRUE",
			"parent_zcta": "",
			"population": "992",
			"density": "8.4",
			"countyfips": "48147",
			"countyname": "Fannin",
			"countyweights": "{\"48147\": \"100\"}",
			"countynamesall": "Fannin",
			"countyfipsall": "48147",
			"imprecise": "FALSE",
			"military": "FALSE",
			"timezone": "America/Chicago"
		},
		"75439": {
			"latitude": "33.55199",
			"longitude": "-96.27716",
			"city": "Ector",
			"stateid": "TX",
			"statename": "Texas",
			"zcta": "TRUE",
			"parent_zcta": "",
			"population": "1035",
			"density": "28.7",
			"countyfips": "48147",
			"countyname": "Fannin",
			"countyweights": "{\"48147\": \"100\"}",
			"countynamesall": "Fannin",
			"countyfipsall": "48147",
			"imprecise": "FALSE",
			"military": "FALSE",
			"timezone": "America/Chicago"
		},
		"75440": {
			"latitude": "32.87828",
			"longitude": "-95.75557",
			"city": "Emory",
			"stateid": "TX",
			"statename": "Texas",
			"zcta": "TRUE",
			"parent_zcta": "",
			"population": "6258",
			"density": "21.0",
			"countyfips": "48379",
			"countyname": "Rains",
			"countyweights": "{\"48379\": \"97.1\", \"48499\": \"2.9\"}",
			"countynamesall": "Rains|Wood",
			"countyfipsall": "48379|48499",
			"imprecise": "FALSE",
			"military": "FALSE",
			"timezone": "America/Chicago"
		},
		"75441": {
			"latitude": "33.4322",
			"longitude": "-95.65349",
			"city": "Enloe",
			"stateid": "TX",
			"statename": "Texas",
			"zcta": "TRUE",
			"parent_zcta": "",
			"population": "128",
			"density": "7.0",
			"countyfips": "48119",
			"countyname": "Delta",
			"countyweights": "{\"48119\": \"100\"}",
			"countynamesall": "Delta",
			"countyfipsall": "48119",
			"imprecise": "FALSE",
			"military": "FALSE",
			"timezone": "America/Chicago"
		},
		"75442": {
			"latitude": "33.17365",
			"longitude": "-96.35309",
			"city": "Farmersville",
			"stateid": "TX",
			"statename": "Texas",
			"zcta": "TRUE",
			"parent_zcta": "",
			"population": "9308",
			"density": "34.1",
			"countyfips": "48085",
			"countyname": "Collin",
			"countyweights": "{\"48085\": \"89.03\", \"48231\": \"10.97\"}",
			"countynamesall": "Collin|Hunt",
			"countyfipsall": "48085|48231",
			"imprecise": "FALSE",
			"military": "FALSE",
			"timezone": "America/Chicago"
		},
		"75446": {
			"latitude": "33.61208",
			"longitude": "-95.89414",
			"city": "Honey Grove",
			"stateid": "TX",
			"statename": "Texas",
			"zcta": "TRUE",
			"parent_zcta": "",
			"population": "3178",
			"density": "7.0",
			"countyfips": "48147",
			"countyname": "Fannin",
			"countyweights": "{\"48147\": \"87.67\", \"48277\": \"12.33\"}",
			"countynamesall": "Fannin|Lamar",
			"countyfipsall": "48147|48277",
			"imprecise": "FALSE",
			"military": "FALSE",
			"timezone": "America/Chicago"
		},
		"75447": {
			"latitude": "33.76513",
			"longitude": "-96.1177",
			"city": "Ivanhoe",
			"stateid": "TX",
			"statename": "Texas",
			"zcta": "TRUE",
			"parent_zcta": "",
			"population": "1256",
			"density": "9.1",
			"countyfips": "48147",
			"countyname": "Fannin",
			"countyweights": "{\"48147\": \"100\"}",
			"countynamesall": "Fannin",
			"countyfipsall": "48147",
			"imprecise": "FALSE",
			"military": "FALSE",
			"timezone": "America/Chicago"
		},
		"75448": {
			"latitude": "33.31493",
			"longitude": "-95.79329",
			"city": "Klondike",
			"stateid": "TX",
			"statename": "Texas",
			"zcta": "TRUE",
			"parent_zcta": "",
			"population": "643",
			"density": "8.8",
			"countyfips": "48119",
			"countyname": "Delta",
			"countyweights": "{\"48119\": \"100\"}",
			"countynamesall": "Delta",
			"countyfipsall": "48119",
			"imprecise": "FALSE",
			"military": "FALSE",
			"timezone": "America/Chicago"
		},
		"75449": {
			"latitude": "33.42067",
			"longitude": "-95.94604",
			"city": "Ladonia",
			"stateid": "TX",
			"statename": "Texas",
			"zcta": "TRUE",
			"parent_zcta": "",
			"population": "1374",
			"density": "6.5",
			"countyfips": "48147",
			"countyname": "Fannin",
			"countyweights": "{\"48147\": \"83.39\", \"48231\": \"16.61\"}",
			"countynamesall": "Fannin|Hunt",
			"countyfipsall": "48147|48231",
			"imprecise": "FALSE",
			"military": "FALSE",
			"timezone": "America/Chicago"
		},
		"75450": {
			"latitude": "33.4051",
			"longitude": "-95.47848",
			"city": "Lake Creek",
			"stateid": "TX",
			"statename": "Texas",
			"zcta": "TRUE",
			"parent_zcta": "",
			"population": "150",
			"density": "1.0",
			"countyfips": "48119",
			"countyname": "Delta",
			"countyweights": "{\"48119\": \"100\"}",
			"countynamesall": "Delta",
			"countyfipsall": "48119",
			"imprecise": "FALSE",
			"military": "FALSE",
			"timezone": "America/Chicago"
		},
		"75451": {
			"latitude": "32.96634",
			"longitude": "-95.1212",
			"city": "Leesburg",
			"stateid": "TX",
			"statename": "Texas",
			"zcta": "TRUE",
			"parent_zcta": "",
			"population": "1163",
			"density": "12.9",
			"countyfips": "48063",
			"countyname": "Camp",
			"countyweights": "{\"48063\": \"95.46\", \"48499\": \"4.54\"}",
			"countynamesall": "Camp|Wood",
			"countyfipsall": "48063|48499",
			"imprecise": "FALSE",
			"military": "FALSE",
			"timezone": "America/Chicago"
		},
		"75452": {
			"latitude": "33.39324",
			"longitude": "-96.24331",
			"city": "Leonard",
			"stateid": "TX",
			"statename": "Texas",
			"zcta": "TRUE",
			"parent_zcta": "",
			"population": "4650",
			"density": "23.6",
			"countyfips": "48147",
			"countyname": "Fannin",
			"countyweights": "{\"48147\": \"93.79\", \"48231\": \"4.23\", \"48085\": \"1.98\"}",
			"countynamesall": "Fannin|Hunt|Collin",
			"countyfipsall": "48147|48231|48085",
			"imprecise": "FALSE",
			"military": "FALSE",
			"timezone": "America/Chicago"
		},
		"75453": {
			"latitude": "32.99671",
			"longitude": "-95.93273",
			"city": "Lone Oak",
			"stateid": "TX",
			"statename": "Texas",
			"zcta": "TRUE",
			"parent_zcta": "",
			"population": "3046",
			"density": "15.7",
			"countyfips": "48231",
			"countyname": "Hunt",
			"countyweights": "{\"48231\": \"82.92\", \"48379\": \"13.61\", \"48223\": \"3.47\"}",
			"countynamesall": "Hunt|Rains|Hopkins",
			"countyfipsall": "48231|48379|48223",
			"imprecise": "FALSE",
			"military": "FALSE",
			"timezone": "America/Chicago"
		},
		"75454": {
			"latitude": "33.28335",
			"longitude": "-96.56323",
			"city": "Melissa",
			"stateid": "TX",
			"statename": "Texas",
			"zcta": "TRUE",
			"parent_zcta": "",
			"population": "10467",
			"density": "210.8",
			"countyfips": "48085",
			"countyname": "Collin",
			"countyweights": "{\"48085\": \"100\"}",
			"countynamesall": "Collin",
			"countyfipsall": "48085",
			"imprecise": "FALSE",
			"military": "FALSE",
			"timezone": "America/Chicago"
		},
		"75455": {
			"latitude": "33.21697",
			"longitude": "-94.97819",
			"city": "Mount Pleasant",
			"stateid": "TX",
			"statename": "Texas",
			"zcta": "TRUE",
			"parent_zcta": "",
			"population": "28354",
			"density": "37.1",
			"countyfips": "48449",
			"countyname": "Titus",
			"countyweights": "{\"48449\": \"99.75\", \"48159\": \"0.25\"}",
			"countynamesall": "Titus|Franklin",
			"countyfipsall": "48449|48159",
			"imprecise": "FALSE",
			"military": "FALSE",
			"timezone": "America/Chicago"
		},
		"75457": {
			"latitude": "33.1728",
			"longitude": "-95.21222",
			"city": "Mount Vernon",
			"stateid": "TX",
			"statename": "Texas",
			"zcta": "TRUE",
			"parent_zcta": "",
			"population": "6501",
			"density": "18.6",
			"countyfips": "48159",
			"countyname": "Franklin",
			"countyweights": "{\"48159\": \"100\"}",
			"countynamesall": "Franklin",
			"countyfipsall": "48159",
			"imprecise": "FALSE",
			"military": "FALSE",
			"timezone": "America/Chicago"
		},
		"75459": {
			"latitude": "33.53109",
			"longitude": "-96.67755",
			"city": "Howe",
			"stateid": "TX",
			"statename": "Texas",
			"zcta": "TRUE",
			"parent_zcta": "",
			"population": "5156",
			"density": "25.0",
			"countyfips": "48181",
			"countyname": "Grayson",
			"countyweights": "{\"48181\": \"100\"}",
			"countynamesall": "Grayson",
			"countyfipsall": "48181",
			"imprecise": "FALSE",
			"military": "FALSE",
			"timezone": "America/Chicago"
		},
		"75460": {
			"latitude": "33.65814",
			"longitude": "-95.6042",
			"city": "Paris",
			"stateid": "TX",
			"statename": "Texas",
			"zcta": "TRUE",
			"parent_zcta": "",
			"population": "23504",
			"density": "100.1",
			"countyfips": "48277",
			"countyname": "Lamar",
			"countyweights": "{\"48277\": \"100\"}",
			"countynamesall": "Lamar",
			"countyfipsall": "48277",
			"imprecise": "FALSE",
			"military": "FALSE",
			"timezone": "America/Chicago"
		},
		"75462": {
			"latitude": "33.62386",
			"longitude": "-95.48378",
			"city": "Paris",
			"stateid": "TX",
			"statename": "Texas",
			"zcta": "TRUE",
			"parent_zcta": "",
			"population": "11641",
			"density": "22.5",
			"countyfips": "48277",
			"countyname": "Lamar",
			"countyweights": "{\"48277\": \"100\"}",
			"countynamesall": "Lamar",
			"countyfipsall": "48277",
			"imprecise": "FALSE",
			"military": "FALSE",
			"timezone": "America/Chicago"
		},
		"75468": {
			"latitude": "33.51315",
			"longitude": "-95.40653",
			"city": "Pattonville",
			"stateid": "TX",
			"statename": "Texas",
			"zcta": "TRUE",
			"parent_zcta": "",
			"population": "939",
			"density": "7.2",
			"countyfips": "48277",
			"countyname": "Lamar",
			"countyweights": "{\"48277\": \"100\"}",
			"countynamesall": "Lamar",
			"countyfipsall": "48277",
			"imprecise": "FALSE",
			"military": "FALSE",
			"timezone": "America/Chicago"
		},
		"75469": {
			"latitude": "33.42161",
			"longitude": "-95.8146",
			"city": "Pecan Gap",
			"stateid": "TX",
			"statename": "Texas",
			"zcta": "TRUE",
			"parent_zcta": "",
			"population": "275",
			"density": "3.4",
			"countyfips": "48119",
			"countyname": "Delta",
			"countyweights": "{\"48119\": \"97.3\", \"48147\": \"2.7\"}",
			"countynamesall": "Delta|Fannin",
			"countyfipsall": "48119|48147",
			"imprecise": "FALSE",
			"military": "FALSE",
			"timezone": "America/Chicago"
		},